     2.11           OBSERVATION DATA    G (GPS)             RINEX VERSION / TYPE
teqc  2015Jun23     UNAVCO Archive Ops  20150918 09:23:42UTCPGM / RUN BY / DATE
Solaris x86 5.10|AMD64|cc SC5.8 -xarch=amd64|=+|=+          COMMENT
BIT 2 OF LLI FLAGS DATA COLLECTED UNDER A/S CONDITION       COMMENT
AHUP                                                        MARKER NAME
                                                            MARKER NUMBER
Miklius, Asta       Stanford/HVO                            OBSERVER / AGENCY
4542260456          TRIMBLE NETRS       1.1-2               REC # / TYPE / VERS
60121031            TRM41249.00     NONE                    ANT # / TYPE
 -5467762.7837 -2518810.5051  2103349.5793                  APPROX POSITION XYZ
        0.1110        0.0000        0.0000                  ANTENNA: DELTA H/E/N
     1     1                                                WAVELENGTH FACT L1/2
     7    L1    L2    C1    P2    P1    S1    S2            # / TYPES OF OBSERV
    30.0000                                                 INTERVAL
input file: ahup20150917.bnx                                COMMENT
RINEX file created by UNAVCO GPS Archive.                   COMMENT
For more information contact archive@unavco.org             COMMENT
Monument ID: 13922                                          COMMENT
UNAVCO 4-char name:   AHUP                                  COMMENT
4-char name from Log or data file: AHUP                     COMMENT
Monument location: 19.379109962 -155.266099499 1104.8471    COMMENT
Visit ID: 88461                                             COMMENT
                                                            COMMENT
NOTICE: If using these data for scientific purposes,        COMMENT
please acknowledge the source as Stanford University        COMMENT
and the USGS Hawaii Volcano Observatory.                    COMMENT
                                                            COMMENT
End of DB comments                                          COMMENT
 SNR is mapped to RINEX snr flag value [0-9]                COMMENT
  L1 & L2: min(max(int(snr_dBHz/6), 0), 9)                  COMMENT
  2015     9    17     0     0    0.0000000     GPS         TIME OF FIRST OBS
                                                            END OF HEADER
 15  9 17  0  0  0.0000000  0 10G14G04G22G29G18G16G27G26G21G31
 123087847.152 6  95912589.32643  23422838.570    23422833.9184
        40.800          22.6004
 132989147.567 5                  25306993.402
        35.000
 106340645.633 8  82862797.33947  20235952.092    20235941.4624
        50.000          43.0004
 126156070.776 7  98303423.16344  24006702.001    24006699.8694
        42.100          27.1004
 113503366.243 8  88444145.02846  21598972.476    21598963.5464
        49.600          36.1004
 111030721.158 8  86517412.44846  21128443.658    21128435.7824
        49.100          38.1004
 118963334.801 7  92698683.53945  22637969.946    22637965.1774
        45.500          32.5004
 109860699.985 8  85605721.49946  20905796.105    20905791.5704
        50.200          39.5004
 123297776.472 7  96076154.29144  23462786.722    23462778.2604
        44.300          26.4004
 131683321.682 5                  25058502.965
        34.900
 15  9 17  0  0 30.0000000  0 10G14G04G22G29G18G16G27G26G21G31
 123020686.872 6  95860256.74643  23410058.372    23410054.1304
        41.000          23.0004
 132930139.630 5                  25295763.141
        33.800
 106337725.632 8  82860522.01747  20235396.150    20235386.0474
        49.200          43.0004
 126220021.510 6  98353254.75744  24018871.297    24018869.2234
        39.700          26.0004
 113567875.210 8  88494411.71546  21611248.392    21611239.8134
        50.200          36.1004
 111020962.776 8  86509808.49646  21126587.216    21126579.3994
        49.900          38.5004
 118886040.885 7  92638454.56145  22623261.210    22623256.5584
        45.900          32.3004
 109907000.144 8  85641799.49146  20914606.697    20914602.5144
        50.700          40.1004
 123334888.137 7  96105072.42144  23469849.096    23469840.6344
        43.300          25.7004
 131721398.983 5                  25065749.475
        34.300
 15  9 17  0  1  0.0000000  0 10G14G04G22G29G18G16G27G26G21G31
 122953536.274 6  95807931.72943  23397279.099    23397275.2674
        40.600          23.9004
 132871191.357 5                  25284551.367
        31.300
 106335297.881 8  82858630.27547  20234934.215    20234923.3514
        49.700          43.2004
 126284224.854 6  98403283.20644  24031089.779    24031087.6484
        39.700          26.6004
 113632673.748 7  88544904.05046  21623579.367    21623570.1434
        47.600          36.6004
 111011771.038 8  86502646.09646  21124838.601    21124830.3744
        49.400          38.4004
 118808776.361 7  92578248.50945  22608559.101    22608553.6874
        45.800          32.2004
 109953785.509 8  85678255.56846  20923509.855    20923505.3794
        49.900          40.5004
 123371915.643 6  96133924.95744  23476894.687    23476886.3424
        41.400          24.8004
 131759179.973 5                  25072937.213
        31.200
 15  9 17  0  1 30.0000000  0 10G14G04G22G29G18G16G27G26G21G31
 122886417.937 6  95755631.80844  23384506.900    23384502.8344
        40.600          24.1004
                                  25273360.385
        29.100
 106333381.788 8  82857137.21847  20234569.841    20234559.0354
        50.200          43.3004
 126348700.561 6  98453523.89544  24043359.039    24043356.2634
        40.500          26.8004
 113697779.050 7  88595635.42846  21635968.256    21635959.2084
        47.000          36.1004
 111003165.798 8  86495940.70846  21123200.666    21123192.2054
        49.400          38.2004
 118731563.044 7  92518082.32645  22593865.185    22593860.1824
        45.700          32.6004
 110001073.935 8  85715103.63746  20932508.175    20932504.0514
        50.500          40.3004
 123408877.712 7  96162726.52244  23483928.143    23483920.5024
        42.400          25.1004
 131796717.613 5                  25080081.604
        32.500
 15  9 17  0  2  0.0000000  0 10G14G04G22G29G18G16G27G26G21G31
 122819284.997 6  95703320.53543  23371731.617    23371727.8444
        40.300          22.6004
 132753648.038 5                  25262182.884
        34.100
 106331926.450 8  82856003.19447  20234292.788    20234282.0404
        50.300          43.9004
 126413399.050 6  98503938.14544  24055670.727    24055667.8334
        41.400          27.2004
 113763139.897 8  88646565.92846  21648406.404    21648397.1804
        48.800          36.1004
 110995097.503 8  86489653.71446  21121665.402    21121656.9404
        49.700          38.5004
 118654353.132 7  92457918.80745  22579172.147    22579167.6124
        46.100          31.6004
 110048813.604 8  85752303.32546  20941593.435    20941588.7254
        50.500          40.7004
 123445725.593 7  96191439.09644  23490940.352    23490931.8904
        43.000          25.0004
 131833922.750 5                  25087160.818
        33.200
 15  9 17  0  2 30.0000000  0 10G14G04G22G29G18G16G27G26G21G31
 122752183.075 6  95651033.44543  23358963.044    23358958.6264
        40.900          23.2004
 132695003.563 4                  25251021.925
        28.000
 106330974.390 8  82855261.32847  20234111.701    20234100.7784
        50.000          43.3004
 126478363.026 6  98554559.27344  24068032.838    24068030.7074
        40.900          26.4004
 113828796.773 8  88697727.08946  21660900.082    21660891.5624
        48.500          36.0004
 110987609.217 8  86483818.68646  21120240.407    21120232.2974
        49.800          38.2004
 118577191.429 7  92397792.85345  22564488.773    22564483.5354
        46.700          33.3004
 110097045.325 8  85789886.43446  20950771.119    20950767.1714
        50.400          39.8004
 123482502.297 6  96220096.19344  23497938.826    23497930.1304
        41.400          24.2004
 131870850.941 5                  25094191.483
        32.500
 15  9 17  0  3  0.0000000  0 10G14G04G22G29G18G16G27G26G21G31
 122685099.535 6  95598760.67043  23346197.875    23346193.0474
        41.000          23.4004
 132636460.052 5                  25239882.050
        30.100
 106330509.639 8  82854899.18647  20234023.109    20234012.5374
        49.600          43.1004
 126543576.510 6  98605374.80844  24080442.831    24080440.5244
        40.800          25.1004
 113894732.240 8  88749105.33845  21673447.456    21673438.5254
        50.000          35.7004
 110980685.376 8  86478423.47046  21118922.822    21118914.7124
        50.200          38.1004
 118500064.409 7  92337693.91845  22549812.658    22549807.2444
        46.000          32.3004
 110145751.488 8  85827839.21546  20960039.728    20960035.6034
        50.300          39.8004
 123519192.817 7  96248686.17244  23504920.704    23504912.3604
        43.300          24.7004
                                  25101161.017
        30.500
 15  9 17  0  3 30.0000000  0 10G14G04G22G29G18G16G27G26G21G31
 122618041.400 6  95546507.66144  23333437.286    23333432.2234
        41.800          24.2004
 132577993.163 5                  25228757.925
        31.000
 106330535.876 8  82854919.63947  20234028.310    20234017.8564
        49.900          43.2004
 126609044.205 6  98656388.47343  24092901.328    24092898.0824
        39.700          22.9004
 113960948.095 8  88800702.07245  21686047.919    21686038.8714
        49.200          35.1004
 110974330.390 8  86473471.51846  21117713.502    21117705.5684
        48.200          38.2004
 118422978.413 7  92277626.96545  22535143.348    22535138.6964
        46.500          32.6004
 110194934.340 8  85866163.45946  20969398.698    20969395.0424
        49.900          40.2004
 123555801.568 7  96277212.40944  23511886.806    23511879.1654
        42.600          26.1004
                                  25108077.553
        32.000
 15  9 17  0  4  0.0000000  0 10G14G04G22G29G18G16G27G26G21G31
 122551011.276 6  95494276.47543  23320681.183    23320676.2384
        41.100          22.9004
 132519625.058 5                  25217651.424
        31.500
 106331051.952 8  82855321.78347  20234126.430    20234115.1554
        50.500          43.2004
 126674765.322 6  98707599.58343  24105407.090    24105405.8964
        38.100          22.3004
 114027442.180 8  88852515.61045  21698701.333    21698692.3444
        49.600          35.5004
 110968544.143 8  86468962.73946  21116612.218    21116604.4594
        49.700          38.6004
 118345935.106 7  92217593.26845  22520482.237    22520478.1134
        45.800          33.2004
 110244591.489 8  85904857.28346  20978848.356    20978844.4664
        50.100          39.5004
 123592328.618 7  96305674.98744  23518837.952    23518830.1354
        43.700          26.0004
 131979905.103 5                  25114938.177
        32.200
 15  9 17  0  4 30.0000000  0 10G14G04G22G29G18G16G27G26G21G31
 122484007.809 6  95442066.06243  23307930.521    23307925.8694
        41.300          23.6004
 132461355.171 5                  25206561.940
        33.000
 106332053.158 8  82856101.94047  20234317.290    20234306.8354
        50.300          43.4004
 126740735.608 6  98759004.85243  24117961.602    24117959.3534
        39.200          22.3004
 114094208.054 8  88904540.93745  21711406.499    21711397.5684
        49.600          35.2004
 110963322.816 8  86464894.16046  21115619.224    21115610.9974
        50.300          38.6004
 118268932.409 7  92157591.19945  22505829.569    22505824.6834
        46.500          33.1004
 110294716.609 8  85943915.76746  20988387.029    20988382.9054
        49.800          39.9004
 123628769.778 7  96334070.63444  23525773.181    23525765.0124
        44.100          25.6004
 132015660.055 5                  25121742.484
        30.300
 15  9 17  0  5  0.0000000  0 10G14G04G22G29G18G16G27G26G21G31
 122417036.117 7  95389880.40544  23295186.356    23295182.4664
        42.200          26.0004
 132403161.029 5                  25195486.840
        33.400
 106333541.112 8  82857261.39547  20234600.058    20234589.6624
        51.600          43.2004
 126806957.129 6  98810605.89143  24130563.696    24130560.2164
        40.500          22.8004
 114161245.601 8  88956777.94845  21724163.254    21724154.5584
        49.700          35.3004
 110958667.869 8  86461266.91446  21114733.234    21114725.1244
        50.000          38.6004
 118191974.417 7  92097623.95945  22491184.497    22491180.1394
        45.800          32.9004
 110345309.710 8  85983338.89846  20998014.695    20998010.5124
        49.900          39.0004
 123665127.910 7  96362401.59644  23532690.887    23532683.7144
        42.400          26.9004
 132051105.878 5                  25128487.667
        30.500
 15  9 17  0  5 30.0000000  0 10G14G04G22G29G18G16G27G26G21G31
 122350098.117 6  95337721.03443  23282447.759    23282443.8694
        41.800          23.5004
 132345053.379 6                  25184430.272
        36.400
 106335514.118 8  82858798.80747  20234975.649    20234964.8434
        51.700          43.5004
 126873428.953 6  98862401.97143  24143212.351    24143209.5164
        40.500          22.8004
 114228551.764 8  89009224.27245  21736971.600    21736962.7864
        49.800          35.7004
 110954578.517 8  86458080.39146  21113954.681    21113946.6884
        48.300          38.3004
 118115062.339 7  92037692.51545  22476548.413    22476544.4054
        45.500          33.3004
 110396367.732 8  86023124.30046  21007730.583    21007726.7524
        49.400          39.5004
 123701402.074 7  96390667.10844  23539594.227    23539585.7654
        42.300          27.0004
                                  25135179.245
        27.300
 15  9 17  0  6  0.0000000  0  9G14G04G22G29G18G16G27G26G21
 122283198.407 6  95285591.46144  23269717.603    23269712.7764
        41.800          24.9004
 132287033.663 5                  25173390.252
        34.100
 106337973.350 8  82860715.10047  20235443.681    20235432.9334
        49.700          43.8004
 126940152.731 6  98914394.40543  24155910.127    24155907.1754
        40.500          22.6004
 114296126.474 8  89061879.84645  21749830.381    21749821.5094
        49.100          35.4004
 110951056.523 8  86455335.96746  21113284.990    21113276.1774
        50.800          38.5004
 118038199.930 7  91977799.77745  22461922.301    22461918.0594
        46.200          33.3004
 110447890.237 8  86063271.65046  21017535.102    21017530.8604
        49.200          39.6004
 123737594.446 7  96418868.89344  23546481.332    23546473.2224
        42.700          26.8004
 15  9 17  0  6 30.0000000  0  9G14G04G22G29G18G16G27G26G21
 122216338.818 6  95233493.18643  23256995.079    23256989.8414
        40.700          23.8004
 132229099.990 6                  25162365.050
        36.400
 106340916.573 8  82863008.52347  20236003.528    20235992.8394
        51.100          43.6004
 127007126.950 6  98966581.94643  24168654.096    24168651.7304
        40.500          22.9004
 114363966.140 8  89114741.88245  21762739.735    21762731.3324
        49.500          35.3004
 110948100.914 8  86453032.87646  21112722.409    21112714.0064
        49.300          38.8004
 117961388.287 7  91917946.58445  22447305.209    22447300.2054
        45.700          32.5004
 110499874.076 8  86103778.47346  21027427.171    21027422.8124
        49.900          39.6004
 123773704.608 7  96447006.63744  23553353.641    23553344.8274
        43.100          26.5004
 15  9 17  0  7  0.0000000  0  9G14G04G22G29G18G16G27G26G21
 122149521.913 7  95181428.15543  23244280.271    23244275.2084
        42.700          23.4004
 132171251.364 5                  25151356.800
        33.200
 106344343.177 8  82865678.60147  20236655.413    20236644.7834
        51.500          43.5004
 127074351.677 6  99018964.71043  24181447.689    24181445.2644
        40.100          23.6004
 114432068.388 8  89167808.52745  21775699.128    21775690.3154
        48.800          35.3004
 110945711.335 8  86451170.84246  21112267.765    21112258.8934
        49.800          38.0004
 117884629.293 7  91858134.42345  22432698.252    22432693.3074
        45.900          32.7004
 110552316.797 8  86144642.86546  21037406.928    21037402.9214
        49.700          39.5004
 123809732.810 7  96475080.49244  23560209.202    23560201.0924
        43.800          26.7004
 15  9 17  0  7 30.0000000  0  9G14G04G22G29G18G16G27G26G21
 122082750.645 6  95129398.69444  23231573.402    23231568.8094
        41.000          24.5004
 132113487.477 5                  25140364.029
        33.000
 106348251.987 8  82868724.43347  20237399.241    20237388.5524
        50.100          43.1004
 127141826.043 6  99071542.01744  24194287.429    24194285.0634
        39.500          24.1004
 114500431.167 8  89221078.17745  21788707.926    21788699.4654
        48.500          35.3004
 110943887.590 8  86449749.72646  21111920.585    21111912.4754
        49.600          38.6004
 117807924.752 7  91798364.69045  22418102.078    22418096.8404
        46.300          32.8004
 110605215.966 8  86185862.93446  21047473.247    21047469.8264
        49.100          38.9004
 123845679.021 6  96503090.46244  23567049.845    23567041.5004
        41.800          24.6004
 15  9 17  0  8  0.0000000  0  9G14G04G22G29G18G16G27G26G21
 122016028.020 6  95077407.13444  23218876.843    23218872.1324
        41.500          24.4004
 132055808.525 5                  25129387.778
        34.300
 106352642.923 8  82872145.94147  20238234.954    20238223.9134
        50.600          43.6004
 127209550.305 6  99124314.02844  24207174.456    24207172.5594
        39.400          24.4004
 114569052.752 8  89274549.49545  21801766.675    21801758.0374
        48.500          34.7004
 110942629.853 8  86448769.64146  21111681.662    21111673.0244
        50.700          38.6004
 117731277.221 7  91738639.37545  22403516.449    22403511.5044
        46.300          33.3004
 110658569.757 8  86227437.25246  21057626.548    21057622.5404
        49.900          39.8004
 123881543.719 7  96531036.92544  23573874.668    23573866.6754
        43.200          26.1004
 15  9 17  0  8 30.0000000  0  9G14G04G22G29G18G16G27G26G21
 121949357.041 6  95025455.79543  23206189.650    23206184.7634
        41.800          22.6004
 131998213.141 5                  25118425.950
        31.800
 106357514.908 8  82875942.29147  20239162.126    20239151.3204
        51.400          43.4004
 127277524.084 6  99177280.47643  24220107.723    24220107.7604
        36.300          22.2004
 114637931.009 8  89328220.81245  21814873.664    21814865.5544
        49.300          34.9004
 110941937.669 8  86448230.24546  21111549.490    21111541.5564
        50.300          39.3004
 117654688.691 7  91678960.03645  22388942.403    22388936.8714
        46.600          31.9004
 110712375.801 8  86269363.98246  21067865.494    21067861.1944
        49.800          39.3004
 123917327.398 6  96558920.26744  23580683.918    23580675.8084
        41.500          26.5004
 15  9 17  0  9  0.0000000  0  9G14G04G22G29G18G16G27G26G21
 121882739.741 7  94973546.29444  23193513.037    23193507.6824
        42.000          25.9004
 131940700.374 5                  25107482.662
        34.000
 106362866.399 8  82880112.28947  20240180.032    20240170.1054
        50.700          43.3004
 127345746.857 6  99230440.94743  24233091.249    24233090.2314
        36.700          21.7004
 114707062.601 8  89382089.54845  21828028.698    21828020.2364
        48.000          35.0004
 110941810.327 8  86448130.99046  21111525.199    21111517.4994
        48.800          38.8004
 117578160.599 7  91619327.79245  22374379.253    22374374.0734
        46.400          32.6004
 110766631.175 8  86311640.82646  21078189.997    21078185.6974
        50.000          39.6004
 123953030.254 6  96586740.60344  23587478.450    23587469.9884
        41.800          26.0004
 15  9 17  0  9 30.0000000  0  9G14G04G22G29G18G16G27G26G21
 121816178.461 7  94921680.44944  23180845.989    23180841.2204
        43.100          24.7004
 131883269.208 5                  25096554.969
        35.500
 106368695.870 8  82884654.73147  20241289.616    20241278.8684
        50.600          43.5004
 127414217.602 6  99283794.63343  24246121.889    24246119.3474
        37.600          21.8004
 114776444.907 7  89436153.64345  21841231.807    21841223.6394
        47.500          34.9004
 110942247.023 8  86448471.23746  21111608.429    21111600.3194
        48.800          38.4004
 117501694.401 7  91559743.78045  22359828.650    22359823.4714
        46.400          33.2004
 110821332.923 8  86354265.49846  21088599.137    21088595.1304
        48.800          38.5004
 123988651.498 7  96614497.34344  23594256.808    23594248.8734
        42.000          25.1004
 15  9 17  0 10  0.0000000  0 10G14G04G22G29G18G08G16G27G26G21
 121749676.121 7  94869860.53344  23168191.288    23168186.8704
        42.200          25.8004
 131825919.017 6                  25085639.291
        36.400
 106375002.598 8  82889569.06247  20242489.782    20242479.0934
        50.500          43.4004
 127482935.904 6  99337341.21643  24259198.897    24259196.4144
        38.300          22.2004
 114846075.738 7  89490411.38045  21854482.162    21854473.9944
        47.600          34.9004
                                  25430880.319
        34.700
 110943247.164 8  86449250.54446  21111798.577    21111790.8194
        49.200          38.6004
 117425292.256 7  91500209.68445  22345289.125    22345284.5914
        46.500          33.3004
 110876478.731 8  86397236.19446  21099093.155    21099088.9724
        49.900          39.1004
 124024191.592 7  96642190.85544  23601019.587    23601011.1254
        43.100          25.1004
 15  9 17  0 10 30.0000000  0 10G14G04G22G29G18G08G16G27G26G21
 121683240.005 7  94818092.23344  23155549.054    23155543.9924
        43.400          24.3004
 131768653.512 5                  25074742.175
        35.100
 106381789.937 8  82894857.89047  20243781.581    20243771.0104
        51.100          43.4004
 127551905.774 6  99391083.88443  24272324.121    24272320.9344
        40.700          22.5004
 114915957.605 8  89544864.72645  21867780.862    21867771.9914
        48.100          35.1004
 133551636.018 5 104066192.16042  25414031.341    25414026.9234
        34.300          15.6004
 110944815.015 8  86450472.22046  21112097.181    21112088.7784
        49.200          38.9004
 117348960.629 7  91440730.54445  22330764.150    22330759.1474
        46.300          33.7004
 110932070.644 8  86440554.50246  21109671.738    21109667.7894
        49.200          38.7004
 124059655.375 6  96669824.93444  23607767.866    23607759.6974
        41.700          26.1004
 15  9 17  0 11  0.0000000  0 10G14G04G22G29G18G08G16G27G26G21
 121616865.865 7  94766372.20544  23142918.001    23142912.6464
        42.600          24.9004
 131711465.213 5 102632326.66842  25063859.223    25063862.3664
        34.600          17.4004
 106389050.082 8  82900515.14547  20245163.154    20245152.1724
        50.600          43.5004
 127621120.040 6  99445016.93143  24285494.469    24285492.9234
        39.400          22.9004
 114986080.710 8  89599506.06145  21881124.931    21881116.1184
        48.800          35.6004
 133462939.250 5 103997090.90642  25397155.854    25397151.9644
        32.600          16.3004
 110946943.181 8  86452130.50546  21112501.905    21112493.7954
        48.200          38.4004
 117272694.716 7  91381302.58945  22316250.882    22316246.1714
        46.000          34.0004
 110988099.313 8  86484213.13446  21120333.954    21120330.2404
        48.900          38.9004
 124095036.343 7  96697394.40444  23614500.919    23614492.9264
        42.600          24.3004
 15  9 17  0 11 30.0000000  0 10G14G04G22G29G18G08G16G27G26G21
 121550559.615 7  94714705.10044  23130300.758    23130295.5794
        44.100          25.3004
 131654356.755 5 102587826.74142  25052993.142    25052995.4644
        35.800          17.4004
 106396784.754 8  82906542.15747  20246635.150    20246624.2274
        50.900          43.3004
 127690581.388 6  99499142.51743  24298713.171    24298710.7464
        39.900          22.3004
 115056445.938 8  89654336.05545  21894514.724    21894506.2044
        48.300          35.1004
 133374128.888 5 103927884.65842  25380253.048    25380250.1554
        32.500          16.9004
 110949634.379 8  86454227.51846  21113014.289    21113006.0614
        48.500          38.9004
 117196499.425 7  91321929.67245  22301751.409    22301746.4064
        46.600          34.0004
 111044565.188 8  86528212.43746  21131079.031    21131075.3174
        48.900          38.6004
 124130337.761 7  96724901.93244  23621218.510    23621209.8734
        42.600          25.3004
 15  9 17  0 12  0.0000000  0 10G14G04G22G29G18G08G16G27G26G21
 121484323.767 7  94663092.83644  23117696.289    23117691.7544
        42.600          25.3004
 131597326.822 5 102543388.00642  25042140.918    25042142.4214
        35.200          16.3004
 106404992.747 8  82912937.99347  20248196.685    20248185.9974
        50.800          43.3004
 127760288.947 6  99553459.94543  24311977.742    24311974.5554
        38.800          21.7004
 115127051.155 8  89709353.06545  21907951.072    21907941.9664
        48.600          35.7004
 133285176.820 5 103858571.31042  25363326.649    25363322.7594
        32.800          15.6004
 110952887.606 8  86456762.46946  21113633.194    21113625.3774
        49.700          38.7004
 117120376.600 7  91262613.22145  22287266.447    22287260.9164
        46.600          33.2004
 111101465.556 8  86572550.31046  21141907.414    21141902.7624
        49.300          39.2004
 124165560.188 6  96752347.91544  23627920.754    23627913.5234
        41.500          26.4004
 15  9 17  0 12 30.0000000  0 11G14G04G22G29G18G08G16G27G26G21G31
 121418161.428 7  94611537.85344  23105105.293    23105100.8174
        42.100          24.0004
 131540375.187 5 102499010.28642  25031303.534    25031305.5634
        34.600          17.4004
 106413673.374 8  82919702.11247  20249848.619    20249837.6374
        51.000          43.6004
 127830242.690 6  99607969.24143  24325289.162    24325286.5024
        37.600          21.7004
 115197893.986 7  89764555.22645  21921431.211    21921422.8664
        47.500          35.0004
 133196092.477 6 103789154.81742  25346376.284    25346369.7574
        36.800          16.9004
 110956702.790 8  86459735.32046  21114359.418    21114351.7184
        49.100          38.5004
 117044328.723 7  91203355.17945  22272794.072    22272789.5374
        46.300          34.0004
 111158798.331 8  86617225.12746  21152816.809    21152813.0364
        49.100          38.6004
 124200703.544 6  96779732.24544  23634608.024    23634600.7934
        40.900          26.3004
 132546614.661 5                  25222781.282
        33.700
 15  9 17  0 13  0.0000000  0 11G14G04G22G29G18G08G16G27G26G21G31
 121352075.911 7  94560042.74444  23092529.644    23092525.4024
        43.300          25.2004
 131483501.433 6 102454693.24442  25020480.291    25020482.3794
        36.000          17.4004
 106422825.801 8  82926833.86647  20251590.359    20251579.7294
        50.700          42.9004
 127900442.531 6  99662670.27643  24338647.922    24338645.2634
        38.200          20.6004
 115268972.712 8  89819941.20545  21934957.730    21934948.4484
        48.200          34.6004
 133106877.175 5 103719636.32042  25329398.303    25329393.3584
        34.900          13.9004
 110961079.665 8  86463145.84346  21115192.596    21115184.3104
        49.300          38.9004
 116968358.046 7  91144157.30845  22258337.399    22258332.6304
        47.100          34.5004
 111216561.203 8  86662235.08246  21163809.415    21163805.1734
        48.800          38.8004
 124235768.807 7  96807055.77844  23641281.075    23641274.0784
        42.800          25.6004
 132577170.774 5                  25228595.357
        33.300
 15  9 17  0 13 30.0000000  0 10G14G04G22G29G18G08G16G27G26G21
 121286068.671 7  94508608.60144  23079968.880    23079965.1664
        43.300          26.7004
 131426703.967 5 102410435.68142  25009670.515    25009673.5414
        35.900          17.8004
 106432447.644 8  82934331.40947  20253421.333    20253410.4684
        49.400          42.8004
 127970886.926 6  99717561.89943  24352053.177    24352051.5734
        38.400          20.6004
 115340283.934 7  89875508.33845  21948528.240    21948518.5484
        47.100          35.5004
 133017530.652 5 103650015.67742  25312395.178    25312390.7024
        31.800          16.9004
 110966016.636 8  86466992.80446  21116131.957    21116123.9644
        50.000          39.1004
 116892465.626 7  91085020.39545  22243895.750    22243890.2774
        47.200          34.7004
 111274750.574 8  86707577.36946  21174882.304    21174878.1804
        48.000          38.2004
 124270755.125 7  96834317.77744  23647939.354    23647931.7724
        42.200          26.1004
 15  9 17  0 14  0.0000000  0 10G14G04G22G29G18G08G16G27G26G21
 121220144.040 7  94457238.86944  23067424.686    23067419.0384
        42.900          26.7004
 131369983.455 6 102366238.02942  24998879.612    24998880.7044
        36.700          17.4004
 106442539.524 8  82942195.21047  20255341.489    20255331.2694
        50.300          42.8004
 128041576.844 6  99772644.77643  24365504.815    24365503.9734
        37.900          21.8004
 115411826.467 8  89931255.72145  21962142.214    21962133.0494
        48.300          34.8004
 132928054.719 5 103580291.88342  25295367.336    25295365.6144
        33.200          16.3004
 110971514.565 8  86471276.86646  21117177.912    21117170.1544
        49.200          38.8004
 116816655.007 7  91025947.23345  22229469.166    22229464.5724
        47.400          34.9004
 111333365.431 7  86753251.21546  21186036.240    21186031.9984
        47.500          38.7004
 124305664.432 6  96861519.74344  23654582.095    23654574.8644
        40.400          24.3004
 15  9 17  0 14 30.0000000  0 10G14G04G22G29G18G08G16G27G26G21
 121154304.656 7  94405935.53844  23054895.276    23054890.2734
        42.600          25.6004
 131313339.025 5 102322099.75842  24988099.137    24988101.6944
        35.800          17.4004
 106453099.962 8  82950424.11747  20257351.339    20257340.7094
        49.100          43.0004
 128112511.215 6  99827918.18643  24379003.595    24379002.4594
        38.300          21.3004
 115483598.211 7  89987181.71645  21975799.813    21975790.8824
        47.000          34.4004
 132838447.288 5 103510475.78042  25278318.443    25278315.2574
        34.100          16.3004
 110977572.704 8  86475997.46546  21118330.908    21118323.1504
        48.300          38.6004
 116740928.088 7  90966939.29745  22215059.224    22215053.9864
        47.300          35.1004
 111392403.026 8  86799254.46146  21197271.109    21197266.8674
        48.300          38.8004
 124340497.034 6  96888661.94744  23661210.540    23661203.1924
        41.400          25.0004
 15  9 17  0 15  0.0000000  0 11G14G04G22G29G18G08G16G27G26G21G31
 121088552.024 7  94354699.81144  23042382.943    23042377.5294
        43.100          25.3004
 131256768.781 6 102278019.21243  24977334.543    24977336.1034
        38.400          18.3004
 106464126.455 8  82959016.17847  20259449.463    20259438.8334
        50.200          43.1004
 128183688.626 6  99883380.92643  24392547.380    24392546.8314
        38.200          19.3004
 115555595.449 7  90043283.41945  21989499.716    21989491.3714
        46.800          35.3004
 132748717.343 5 103440556.27742  25261242.976    25261240.0824
        33.800          15.6004
 110984189.062 8  86481153.04046  21119590.026    21119582.0924
        49.100          38.4004
 116665285.640 7  90907997.17145  22200665.022    22200659.4324
        47.800          34.7004
 111451859.402 7  86845584.03646  21208585.078    21208581.0714
        47.600          38.0004
 124375251.942 6  96915743.60944  23667824.716    23667817.1334
        41.000          24.7004
 132696232.409 5                  25251252.405
        31.900
 15  9 17  0 15 30.0000000  0 11G14G04G22G29G18G08G16G27G26G21G31
 121022890.645 7  94303535.18144  23029887.962    23029882.9584
        44.300          26.5004
 131200273.048 6 102233996.80142  24966583.562    24966585.2404
        37.500          17.8004
 106475619.130 8  82967971.50547  20261636.457    20261625.5344
        50.500          42.9004
 128255109.693 6  99939033.54743  24406138.533    24406137.9254
        38.300          20.4004
 115627817.205 7  90099560.08645  22003243.301    22003234.8394
        47.900          35.3004
 132658861.935 6 103370539.06643  25244143.400    25244141.2104
        36.700          18.6004
 110991364.101 8  86486743.94546  21120955.367    21120947.0814
        48.300          38.3004
 116589731.023 7  90849123.48645  22186287.464    22186282.3434
        46.200          35.5004
 111511733.188 8  86892238.86746  21219978.779    21219974.4204
        48.800          37.8004
 124409930.629 6  96942765.86944  23674423.966    23674415.9154
        41.600          25.7004
 132725202.189 5                  25256764.582
        32.500
 15  9 17  0 16  0.0000000  0 11G14G04G22G29G18G08G16G27G26G21G31
 120957322.497 7  94252443.22544  23017409.958    23017406.1864
        43.900          25.5004
 131143850.959 6 102190031.65943  24955845.933    24955848.4314
        36.800          18.6004
 106487576.397 8  82977288.84747  20263912.090    20263901.1674
        50.800          43.0004
 128326773.923 6  99994875.65543  24419776.568    24419774.7304
        37.800          19.0004
 115700260.371 8  90156009.26345  22017029.051    22017020.5894
        48.700          35.5004
 132568882.351 6 103300425.06342  25227024.929    25227018.9294
        38.300          16.9004
 110999097.325 8  86492769.79746  21122427.031    21122418.6284
        48.400          38.7004
 116514266.016 7  90790319.63945  22171926.136    22171921.5424
        46.300          34.7004
 111572021.549 7  86939216.74246  21231451.126    21231447.4124
        47.900          38.2004
 124444533.433 6  96969729.00844  23681009.296    23681001.0694
        41.900          25.8004
 132753846.821 4                  25262213.575
        28.300
 15  9 17  0 16 30.0000000  0 10G14G04G22G29G18G08G16G27G26G21
 120891851.441 7  94201426.90944  23004951.333    23004947.1504
        43.100          25.8004
 131087502.944 6 102146124.33042  24945123.922    24945125.0144
        37.900          16.9004
 106499998.283 8  82986968.22647  20266276.066    20266265.3194
        50.900          42.9004
 128398681.514 6 100050907.40643  24433460.350    24433458.6294
        38.400          18.6004
 115772924.301 8  90212630.47045  22030856.445    22030847.7484
        48.500          34.5004
 132478780.829 6 103230215.99742  25209877.044    25209872.4514
        36.500          16.9004
 111007388.625 8  86499230.51846  21124004.312    21123996.2614
        49.300          38.4004
 116438894.023 7  90731588.26545  22157584.097    22157578.6244
        45.400          34.8004
 111632723.042 8  86986516.53846  21243002.635    21242998.3354
        48.000          38.0004
 124479061.584 7  96996633.95144  23687579.590    23687571.9494
        42.500          25.7004
 15  9 17  0 17  0.0000000  0 10G14G04G22G29G18G08G16G27G26G21
 120826479.021 7  94150487.44044  22992512.177    22992506.6464
        43.800          26.7004
 131031226.713 6 102102272.97142  24934413.613    24934416.1714
        36.700          17.4004
 106512881.908 8  82997007.41547  20268727.580    20268717.0674
        50.700          43.1004
 128470830.432 6 100107127.21143  24447190.385    24447187.4334
        39.800          19.9004
 115845804.924 7  90269420.51645  22044725.276    22044716.8154
        47.500          35.1004
 132388556.651 5 103159911.43443  25192707.364    25192703.0054
        35.900          18.3004
 111016235.367 8  86506124.04546  21125688.453    21125680.5774
        49.900          39.1004
 116363615.408 7  90672929.65945  22143258.984    22143253.1604
        45.400          35.8004
 111693833.364 7  87034134.89846  21254631.251    21254627.6544
        47.900          38.0004
 124513514.005 7  97023479.92444  23694134.997    23694127.2394
        42.900          24.8004
 15  9 17  0 17 30.0000000  0 11G14G04G22G29G18G08G16G27G26G21G31
 120761208.247 7  94099627.17644  22980090.716    22980085.7714
        42.900          27.7004
 130975022.019 5 102058477.27142  24923718.680    24923721.4134
        35.800          17.4004
 106526226.342 8  83007405.66747  20271266.902    20271256.1554
        50.100          43.5004
 128543220.699 6 100163535.06343  24460966.296    24460963.7544
        40.300          19.6004
 115918900.362 7  90326377.96245  22058634.580    22058626.3524
        47.600          35.0004
 132298211.601 6 103089512.65642  25175514.620    25175510.7894
        36.300          16.9004
 111025637.629 8  86513450.45246  21127477.429    21127469.2614
        50.000          38.8004
 116288432.763 7  90614345.82045  22128951.904    22128946.7834
        45.200          35.5004
 111755350.225 7  87082070.03346  21266337.961    21266334.0714
        47.800          38.2004
 124547891.748 7  97050267.68644  23700676.956    23700669.6084
        42.000          24.7004
 132837840.303 5                  25278197.536
        31.300
 15  9 17  0 18  0.0000000  0 11G14G04G22G29G18G08G16G27G26G21G31
 120696042.546 7  94048848.79044  22967690.432    22967685.4874
        43.400          27.1004
 130918888.679 5 102014737.16442  24913035.717    24913038.0984
        35.900          16.3004
 106540030.901 8  83018162.46047  20273893.778    20273883.2074
        50.300          43.2004
 128615851.862 6 100220130.62643  24474787.917    24474785.3754
        37.700          20.9004
 115992209.207 7  90383501.69545  22072585.030    22072577.2724
        47.300          34.7004
 132207747.432 5 103019021.04142  25158301.155    25158297.3244
        34.900          16.9004
 111035595.422 8  86521209.73146  21129372.287    21129364.4704
        50.300          38.9004
 116213348.840 7  90555838.92646  22114663.724    22114658.7214
        45.100          36.3004
 111817271.615 8  87130320.38946  21278120.940    21278117.2254
        48.600          38.8004
 124582195.943 7  97076998.14643  23707204.828    23707197.3634
        42.200          23.4004
 132865191.952 5                  25283405.446
        33.000
 15  9 17  0 18 30.0000000  0 11G14G04G22G29G18G08G16G27G26G21G31
 120630984.428 7  93998154.23844  22955310.182    22955305.2964
        43.700          26.5004
 130862825.719 6 101971051.96643  24902366.261    24902369.4634
        36.200          19.3004
 106554293.755 8  83029276.37247  20276608.001    20276597.3124
        49.500          43.4004
 128688723.315 6 100276913.40943  24488654.271    24488653.1364
        36.900          21.1004
 116065728.374 7  90440789.31845  22086575.028    22086566.5074
        46.700          34.6004
 132117165.103 6 102948437.33243  25141065.799    25141059.7994
        38.200          18.3004
 111046106.961 8  86529400.51146  21131372.973    21131364.9224
        49.400          38.6004
 116138365.261 7  90497410.21045  22100394.974    22100389.9704
        45.100          35.8004
 111879594.400 8  87178883.51946  21289980.855    21289976.9654
        48.300          38.2004
 124616426.262 6  97103671.03143  23713719.213    23713711.8064
        41.800          23.0004
                                  25288544.712
        27.300
 15  9 17  0 19  0.0000000  0 11G14G04G22G29G18G08G16G27G26G21G31
 120566036.870 7  93947545.83944  22942951.207    22942945.6764
        44.100          25.1004
 130806832.538 6 101927421.15143  24891712.648    24891715.0884
        38.800          18.6004
 106569013.767 8  83040746.51047  20279409.565    20279398.2904
        50.000          42.8004
 128761834.596 5 100333883.14643  24502566.781    24502565.0014
        35.900          20.4004
 116139455.627 7  90498239.08945  22100605.045    22100596.7594
        46.700          34.2004
 132026465.798 6 102877762.53843  25123805.029    25123799.9084
        36.800          19.0004
 111057171.554 8  86538022.23146  21133478.261    21133470.0924
        49.500          38.9004
 116063484.376 7  90439061.51446  22086145.716    22086140.5364
        45.800          36.0004
 111942315.935 8  87227757.36846  21301916.275    21301912.5024
        49.000          37.8004
 124650583.277 6  97130286.77743  23720218.501    23720211.2704
        41.700          23.8004
 132918914.982 5                  25293627.346
        30.800
 15  9 17  0 19 30.0000000  0 11G14G04G22G29G18G08G16G27G26G21G31
 120501202.443 7  93897025.57544  22930613.919    22930608.0364
        43.500          25.8004
 130750907.527 6 101883843.47242  24881071.968    24881073.0024
        37.500          17.8004
 106584189.230 8  83052571.53947  20282296.902    20282286.3314
        49.400          42.7004
 128835184.692 5 100391038.89643  24516524.316    24516523.2394
        35.500          19.6004
 116213388.566 7  90555849.13145  22114674.221    22114665.9944
        46.400          33.3004
 131935650.305 6 102806997.25043  25106523.019    25106518.6604
        37.500          19.6004
 111068788.249 8  86547074.16846  21135688.880    21135680.8874
        50.500          38.1004
 115988707.945 7  90380794.21546  22071916.109    22071911.3984
        45.400          36.0004
 112005433.236 8  87276939.60046  21313927.595    21313923.1194
        48.200          38.3004
 124684667.022 6  97156845.45043  23726704.702    23726697.4714
        41.100          23.9004
 132945286.343 5                  25298644.320
        32.400
 15  9 17  0 20  0.0000000  0 11G14G04G22G29G18G08G16G27G26G21G31
 120436484.319 7  93846595.94844  22918297.759    22918292.7564
        43.600          25.6004
 130695051.080 5 101840319.13842  24870438.269    24870442.7604
        32.500          16.9004
 106599819.323 8  83064750.83147  20285271.130    20285261.0274
        49.100          42.9004
 128908772.926 5 100448380.20843  24530527.954    24530527.2884
        34.900          18.6004
 116287525.129 7  90613617.83545  22128781.793    22128773.5664
        46.400          33.9004
 131844720.395 5 102736142.70543  25089219.096    25089215.2654
        35.700          19.9004
 111080956.543 8  86556555.92146  21138004.788    21137996.7374
        48.700          38.3004
 115914038.677 7  90322610.41945  22057706.893    22057701.7724
        45.600          35.3004
 112068944.104 8  87326428.51046  21326012.684    21326009.4384
        48.100          38.0004
 124718678.555 7  97183347.83944  23733177.479    23733169.7794
        42.000          25.5004
 132971322.466 5                  25303599.884
        31.800
 15  9 17  0 20 30.0000000  0 11G14G04G22G29G18G08G16G27G26G21G31
 120371885.002 7  93796258.88144  22906005.178    22906000.1164
        43.400          25.6004
 130639262.014 6 101796847.43342  24859825.954    24859825.6984
        38.000          16.3004
 106615902.385 8  83077283.08847  20288331.668    20288321.1554
        49.400          42.5004
 128982598.979 5 100505906.83843  24544577.252    24544576.4684
        34.600          18.6004
 116361863.236 7  90671543.59345  22142927.788    22142919.1504
        45.900          33.6004
 131753677.210 6 102665200.00643  25071892.847    25071891.0084
        36.100          18.6004
 111093675.297 8  86566466.59146  21140424.734    21140417.0344
        48.500          39.3004
 115839478.498 7  90264511.62246  22043518.585    22043513.8154
        45.600          36.7004
 112132845.491 8  87376221.73246  21338173.251    21338169.4204
        48.800          38.3004
 124752618.527 6  97209794.47744  23739635.437    23739627.7374
        41.000          25.4004
 132997036.166 5                  25308493.025
        30.700
 15  9 17  0 21  0.0000000  0 11G14G04G22G29G18G08G16G27G26G21G31
 120307408.346 7  93746017.40244  22893735.243    22893730.2984
        43.300          25.3004
 130583540.336 6 101753428.20142  24849220.231    24849222.3784
        37.300          17.4004
 106632437.872 8  83090167.87747  20291478.219    20291467.7644
        49.400          42.8004
 129056663.344 6 100563619.16443  24558671.689    24558669.3234
        38.800          18.6004
 116436401.013 7  90729624.93745  22157112.034    22157103.5724
        45.900          32.3004
 131662522.803 6 102594170.58942  25054548.419    25054544.4704
        36.800          17.8004
 111106943.994 8  86576805.80446  21142949.705    21142941.8304
        49.200          38.6004
 115765030.458 7  90206500.20546  22029351.837    22029346.8334
        45.900          36.7004
 112197135.577 8  87426317.82446  21350407.211    21350403.5564
        49.200          37.7004
 124786487.488 7  97236185.76943  23746081.092    23746073.1584
        42.500          23.6004
 133022420.050 5                  25313323.596
        30.700
 15  9 17  0 21 30.0000000  0 11G14G04G22G29G18G08G16G27G26G21G31
 120243055.651 7  93695872.53244  22881489.692    22881484.3364
        44.500          26.8004
 130527884.337 6 101710060.15343  24838629.118    24838631.5584
        36.100          18.3004
 106649423.205 8  83103403.19147  20294710.309    20294699.9134
        50.200          42.9004
 129130963.561 6 100621515.28943  24572809.786    24572808.8264
        36.800          20.9004
 116511134.955 7  90787859.14045  22171333.678    22171325.0404
        46.300          33.5004
 131571257.147 6 102523054.50942  25037180.400    25037176.0414
        36.100          17.4004
 111120760.952 8  86587572.21846  21145579.043    21145570.7574
        48.900          38.1004
 115690695.510 7  90148576.91246  22015205.857    22015200.9124
        45.700          36.6004
 112261810.357 8  87476713.68546  21362714.394    21362710.5634
        48.800          38.2004
 124820285.126 7  97262521.47844  23752512.618    23752504.7424
        42.500          24.7004
 133047485.144 5                  25318092.819
        32.900
 15  9 17  0 22  0.0000000  0 11G14G04G22G29G18G08G16G27G26G21G31
 120178831.071 7  93645827.47944  22869267.963    22869262.7844
        44.500          26.9004
 130472294.143 6 101666743.36843  24828050.236    24828052.7934
        36.200          19.0004
 106666858.114 8  83116988.82647  20298028.456    20298017.5334
        50.300          42.7004
 129205499.873 6 100679595.40043  24586993.627    24586992.4924
        38.000          21.5004
 116586063.739 7  90846245.16445  22185592.127    22185583.4904
        46.600          32.7004
 131479882.795 5 102451853.70442  25019791.459    25019788.2724
        35.300          17.4004
 111135126.024 8  86598765.72946  21148313.064    21148304.7794
        49.300          38.2004
 115616476.927 7  90090744.29346  22001082.477    22001077.7664
        45.900          36.2004
 112326868.178 8  87527408.00346  21375094.484    21375091.0044
        48.800          37.7004
 124854013.001 6  97288802.82644  23758931.367    23758922.9644
        41.700          25.2004
 133072205.688 5                  25322795.672
        33.600
 15  9 17  0 22 30.0000000  0 11G14G04G22G29G18G08G16G27G26G21G31
 120114736.732 7  93595883.88944  22857071.557    22857066.0264
        43.500          27.3004
 130416768.434 6 101623476.84242  24817484.168    24817485.7874
        36.900          17.8004
 106684740.153 8  83130922.88047  20301431.368    20301420.9144
        51.000          43.2004
 129280271.402 6 100737858.79843  24601222.576    24601221.7924
        37.900          22.0004
 116661184.759 7  90904780.97145  22199887.683    22199878.3424
        47.300          32.7004
 131388400.287 6 102380568.67443  25002385.548    25002381.3654
        38.000          18.3004
 111150037.057 8  86610384.67946  21151150.248    21151142.6664
        50.000          38.5004
 115542376.233 7  90033003.53546  21986982.149    21986976.6174
        46.200          37.0004
 112392305.445 7  87578398.00646  21387546.642    21387543.0454
        47.600          37.6004
 124887671.012 6  97315029.76744  23765336.402    23765328.1754
        41.900          24.9004
                                  25327438.427
        26.800
 15  9 17  0 23  0.0000000  0 10G14G04G22G29G18G08G16G27G26G21
 120050776.278 7  93546044.65644  22844899.122    22844894.6464
        43.400          27.2004
 130361307.412 6 101580260.74842  24806930.451    24806931.0744
        37.400          16.9004
 106703069.044 8  83145205.12147  20304919.161    20304908.4724
        50.500          43.0004
 129355277.882 6 100796305.25143  24615495.743    24615494.6074
        38.600          22.8004
 116736496.129 7  90963465.11545  22214218.098    22214209.7544
        46.500          32.7004
 131296811.578 6 102309200.84743  24984955.279    24984951.5064
        37.500          19.0004
 111165494.197 8  86622429.16846  21154091.963    21154083.9124
        48.400          38.8004
 115468396.474 7  89975357.00946  21972903.619    21972899.2024
        46.000          37.5004
 112458120.366 8  87629682.28246  21400071.146    21400067.3734
        48.900          38.0004
 124921260.386 7  97341203.20544  23771728.093    23771720.1004
        42.800          25.6004
 15  9 17  0 23 30.0000000  0 10G14G04G22G29G18G08G16G27G26G21
 119986952.149 7  93496311.61544  22832754.077    22832748.9564
        44.100          27.1004
 130305909.774 6 101537094.01043  24796386.469    24796389.5534
        36.300          18.3004
 106721842.782 8  83159833.99947  20308491.807    20308481.1764
        52.100          43.0004
 129430518.463 6 100854934.11543  24629814.220    24629813.1434
        38.200          21.1004
 116811995.280 7  91022295.58445  22228585.292    22228576.7714
        46.300          32.0004
 131205117.684 6 102237751.02843  24967506.883    24967502.5254
        37.400          18.3004
 111181495.906 8  86634897.99246  21157136.929    21157128.6434
        49.600          38.5004
 115394539.361 7  89917806.05446  21958849.071    21958844.1264
        46.700          38.0004
 112524309.572 8  87681258.21546  21412666.935    21412663.1044
        49.500          37.6004
 124954781.328 7  97367323.32144  23778106.540    23778098.8414
        43.600          24.6004
 15  9 17  0 24  0.0000000  0 10G14G04G22G29G18G08G16G27G26G21
 119923267.165 7  93446687.01844  22820635.106    22820630.4544
        44.100          27.3004
 130250574.750 6 101493976.05243  24785859.729    24785859.9424
        40.200          19.0004
 106741059.886 8  83174808.36347  20312148.650    20312137.9034
        51.400          43.1004
 129505992.549 6 100913744.93043  24644176.457    24644174.9704
        39.400          22.6004
 116887680.049 7  91081270.70045  22242987.652    22242978.8974
        45.800          32.3004
 131113319.760 6 102166220.25642  24950038.443    24950034.2014
        36.800          16.9004
 111198041.340 8  86647790.49646  21160285.464    21160277.4714
        48.300          39.4004
 115320807.183 7  89860352.44946  21944818.369    21944813.3654
        45.700          37.8004
 112590870.312 8  87733123.62746  21425332.822    21425329.2834
        48.700          37.6004
 124988234.423 7  97393390.57244  23784473.582    23784465.1794
        43.000          25.3004
 15  9 17  0 24 30.0000000  0 10G14G04G22G29G18G08G16G27G26G21
 119859723.791 7  93397172.76644  22808543.610    22808538.4314
        44.000          26.7004
 130195301.093 6 101450905.94043  24775339.337    24775341.3084
        38.000          19.0004
 106760718.244 8  83190126.56047  20315889.107    20315878.1254
        50.900          42.4004
 129581698.560 6 100972736.48143  24658582.872    24658582.6164
        38.900          21.7004
 116963548.056 7  91140388.58345  22257424.895    22257416.6094
        46.000          32.4004
 131021418.997 6 102094609.18942  24932549.191    24932545.4184
        37.000          17.8004
 111215128.714 8  86661105.28746  21163536.977    21163528.9844
        48.900          38.8004
 115247201.801 7  89802997.64746  21930811.970    21930806.2044
        46.300          37.7004
 112657799.372 8  87785276.06246  21438068.977    21438065.5564
        48.600          37.4004
 125021619.515 7  97419404.85044  23790826.029    23790818.8574
        43.200          25.9004
 15  9 17  0 25  0.0000000  0 10G14G04G22G29G18G08G16G27G26G21
 119796325.404 7  93347771.48744  22796478.958    22796473.6034
        44.400          27.2004
 130140088.960 6 101407883.72243  24764833.222    24764834.1384
        39.100          18.6004
 106780817.275 8  83205788.13047  20319713.825    20319703.3124
        49.300          42.3004
 129657636.571 6 101031908.79743  24673033.177    24673032.8034
        38.300          21.5004
 117039597.000 7  91199647.43745  22271896.086    22271888.3864
        45.100          32.4004
 130929417.438 6 102022919.76343  24915044.224    24915038.5754
        39.900          19.0004
 111232757.207 8  86674841.73946  21166891.680    21166883.1594
        48.500          39.2004
 115173726.106 7  89745743.90246  21916830.179    21916824.5314
        46.400          37.6004
 112725094.560 8  87837713.78246  21450875.098    21450871.4424
        48.700          37.2004
 125054937.659 7  97445366.93144  23797166.010    23797159.2484
        42.900          25.4004
 15  9 17  0 25 30.0000000  0 10G14G04G22G29G18G08G16G27G26G21
 119733074.940 7  93298485.48344  22784443.326    22784438.3814
        44.500          27.9004
 130084937.652 6 101364908.91743  24754338.299    24754339.0394
        40.600          19.3004
 106801355.373 8  83221791.84647  20323622.006    20323611.4344
        51.000          42.0004
 129733805.644 6 101091261.16143  24687528.825    24687527.6894
        40.800          22.5004
 117115824.917 7  91259045.77845  22286401.951    22286394.2514
        45.600          32.1004
 130837316.423 6 101951152.72343  24897518.049    24897511.7564
        40.100          18.3004
 111250926.301 8  86688999.43546  21170349.192    21170340.8484
        48.700          38.4004
 115100382.350 7  89688592.96546  21902873.340    21902867.3404
        46.700          37.2004
 112792753.095 8  87890434.63246  21463750.177    21463746.4634
        48.600          37.6004
 125088189.972 7  97471277.71244  23803493.882    23803487.0624
        42.800          24.7004
 15  9 17  0 26  0.0000000  0 11G14G04G22G29G18G08G16G27G26G21G31
 119669973.853 7  93249315.86944  22772435.328    22772429.9724
        44.200          27.5004
 130029844.635 6 101321979.52243  24743854.818    24743855.5594
        40.000          19.3004
 106822329.436 8  83238135.26046  20327613.499    20327602.6934
        51.100          41.9004
 129810203.668 6 101150791.92843  24702067.347    24702065.8024
        40.600          23.8004
 117192227.590 7  91318580.28045  22300940.940    22300933.2404
        46.300          31.5004
 130745115.630 6 101879307.94642  24879969.976    24879967.7854
        36.000          16.3004
 111269632.559 8  86703575.69646  21173908.587    21173900.7114
        49.800          38.8004
 115027171.220 7  89631545.37146  21888941.574    21888936.1024
        46.400          37.8004
 112860770.458 8  87943435.07546  21476693.270    21476689.6144
        48.800          37.1004
 125121375.205 7  97497136.23544  23809809.086    23809802.2074
        42.500          26.0004
 133257931.168 5                  25358137.661
        31.200
 15  9 17  0 26 30.0000000  0 10G14G04G22G29G18G08G16G27G26G21
 119607029.306 7  93200268.23144  22760457.131    22760452.0104
        44.000          26.4004
 129974813.999 6 101279098.75942  24733383.250    24733383.4044
        39.900          17.4004
 106843742.971 8  83254821.14547  20331688.369    20331677.0364
        49.300          42.0004
 129886834.916 6 101210504.38943  24716649.000    24716649.0954
        39.600          22.6004
 117268807.682 7  91378253.03845  22315514.114    22315505.9464
        47.300          32.4004
 130652821.320 6 101807390.35542  24862409.006    24862404.4714
        39.900          17.8004
 111288879.610 8  86718573.35746  21177571.782    21177563.6134
        48.800          38.9004
 114954099.709 7  89574606.56546  21875036.680    21875030.9734
        47.300          37.8004
 112929148.608 8  87996716.66946  21489704.980    21489701.2074
        49.300          37.2004
 125154498.230 7  97522946.29343  23816112.425    23816105.3124
        42.100          23.5004
 15  9 17  0 27  0.0000000  0 10G14G04G22G29G18G08G16G27G26G21
 119544239.977 7  93151341.55844  22748508.355    22748503.1764
        43.700          26.7004
 129919841.023 6 101236262.89443  24722919.748    24722922.5984
        38.700          19.3004
 106865589.431 8  83271844.35347  20335845.407    20335835.0114
        49.100          42.2004
 129963693.999 6 101270394.38843  24731274.996    24731274.3884
        39.400          22.8004
 117345559.242 7  91438059.40945  22330119.726    22330110.8544
        47.000          32.4004
 130560430.670 6 101735397.63243  24844826.762    24844823.9864
        39.200          19.3004
 111308662.299 8  86733988.39146  21181335.949    21181328.0154
        48.200          38.8004
 114881165.913 7  89517775.07546  21861157.558    21861152.0854
        47.100          37.1004
 112997880.507 8  88050273.90546  21502784.600    21502781.0034
        49.800          37.6004
 125187555.865 6  97548705.38643  23822402.551    23822395.3204
        41.800          22.3004
 15  9 17  0 27 30.0000000  0 10G14G04G22G29G18G08G16G27G26G21
 119481610.141 7  93102539.16344  22736590.451    22736585.3894
        44.300          26.9004
 129864925.818 6 101193472.05943  24712470.758    24712471.3224
        40.100          19.3004
 106887868.692 8  83289204.81646  20340085.001    20340074.2544
        50.900          41.8004
 130040781.344 6 101330462.25643  24745943.941    24745943.4504
        38.100          21.5004
 117422480.667 7  91497998.13745  22344757.163    22344748.9364
        47.200          32.6004
 130467945.835 6 101663331.59143  24827226.367    24827223.8254
        37.200          18.3004
 111328980.247 8  86749820.52046  21185202.369    21185194.3184
        50.900          38.9004
 114808373.207 8  89461053.52546  21847305.897    21847300.1904
        48.700          37.2004
 113066964.312 8  88104105.37046  21515930.902    21515927.0124
        49.600          36.6004
 125220549.857 7  97574414.87643  23828681.684    23828674.5124
        43.000          22.8004
 15  9 17  0 28  0.0000000  0 11G14G04G22G29G18G08G16G27G26G21G31
 119419140.391 7  93053861.50844  22724702.744    22724697.6234
        43.200          26.7004
 129810065.488 6 101150723.95643  24702031.858    24702032.1294
        39.700          19.3004
 106910577.112 8  83306899.68547  20344406.362    20344395.7324
        51.000          42.4004
 130118093.911 6 101390705.62443  24760656.992    24760656.1504
        37.300          20.9004
 117499567.420 7  91558065.69445  22359426.076    22359418.3764
        45.800          32.2004
 130375366.649 6 101591191.97843  24809608.860    24809606.4354
        38.600          18.6004
 111349830.094 8  86766067.11446  21189170.100    21189162.3424
        50.900          39.3004
 114735721.724 8  89404442.01146  21833480.225    21833474.9284
        48.300          37.6004
 113136395.034 8  88158207.14546  21529142.882    21529139.3434
        49.300          36.8004
 125253478.486 7  97600073.45043  23834947.365    23834939.9594
        42.600          22.8004
 133342687.506 5                  25374266.673
        32.300
 15  9 17  0 28 30.0000000  0 11G14G04G22G29G18G08G16G27G26G21G31
 119356838.493 7  93005314.64744  22712846.463    22712841.7524
        43.500          27.5004
