     2.11           OBSERVATION DATA    G (GPS)             RINEX VERSION / TYPE
teqc  2015Jun23     UNAVCO Archive Ops  20150918 09:26:00UTCPGM / RUN BY / DATE
Solaris x86 5.10|AMD64|cc SC5.8 -xarch=amd64|=+|=+          COMMENT
BIT 2 OF LLI FLAGS DATA COLLECTED UNDER A/S CONDITION       COMMENT
AINP                                                        MARKER NAME
                                                            MARKER NUMBER
Miklius, Asta       USGS/HVO                                OBSERVER / AGENCY
4632120763          TRIMBLE NETRS       1.1-3               REC # / TYPE / VERS
60216820            TRM41249.00     NONE                    ANT # / TYPE
 -5476782.4978 -2500761.5324  2102828.7685                  APPROX POSITION XYZ
        0.0860        0.0000        0.0000                  ANTENNA: DELTA H/E/N
     1     1                                                WAVELENGTH FACT L1/2
     7    L1    L2    C1    P2    P1    S1    S2            # / TYPES OF OBSERV
    30.0000                                                 INTERVAL
input file: ainp20150917.bnx                                COMMENT
RINEX file created by UNAVCO GPS Archive.                   COMMENT
For more information contact archive@unavco.org             COMMENT
Monument ID: 17048                                          COMMENT
UNAVCO 4-char name:   AINP                                  COMMENT
4-char name from Log or data file: AINP                     COMMENT
Monument location: 19.37265216 -155.458018672 1568.1289     COMMENT
Visit ID: 96385                                             COMMENT
                                                            COMMENT
NOTICE: If using these data for scientific purposes,        COMMENT
please acknowledge the source as Stanford University        COMMENT
and the USGS Hawaii Volcano Observatory.                    COMMENT
                                                            COMMENT
End of DB comments                                          COMMENT
 SNR is mapped to RINEX snr flag value [0-9]                COMMENT
  L1 & L2: min(max(int(snr_dBHz/6), 0), 9)                  COMMENT
  2015     9    17     0     0    0.0000000     GPS         TIME OF FIRST OBS
                                                            END OF HEADER
 15  9 17  0  0  0.0000000  0  9G22G14G16G29G18G27G26G21G31
 106333237.123 8  82857026.65847  20234542.159    20234532.1734
        50.400          44.0004
 123132870.972 6  95947681.56142  23431406.260    23431403.7774
        38.100          17.4004
 110974020.642 8  86473230.07946  21117653.964    21117646.0894
        50.900          39.0004
 126248448.114 6  98375412.29143  24024280.856    24024280.4244
        38.300          22.6004
 113545610.217 8  88477066.94046  21607011.249    21607003.3744
        48.200          36.6004
 118920192.939 7  92665069.23345  22629760.344    22629756.3964
        45.400          33.0004
 109822645.994 8  85576070.24046  20898554.586    20898550.3444
        50.600          39.9004
 123361125.699 7  96125520.85444  23474841.742    23474834.0424
        42.700          24.1004
 131651031.716 6 102585211.92442  25052358.325    25052356.4874
        37.200          17.4004
 15  9 17  0  0 30.0000000  0  9G22G14G16G29G18G27G26G21G31
 106330429.925 8  82854839.22647  20234007.616    20233997.5724
        50.100          44.4004
 123065933.273 6  95895522.39543  23418667.381    23418666.4804
        37.300          18.3004
 110964227.192 8  86465598.80046  21115790.198    21115782.4404
        50.700          39.1004
 126312311.792 6  98425176.04543  24036434.323    24036432.8364
        39.400          23.2004
 113610227.132 8  88527417.73646  21619308.233    21619299.8894
        49.200          36.5004
 118843143.116 7  92605030.47645  22615099.045    22615093.9834
        45.900          33.3004
 109868992.891 8  85612184.65346  20907373.815    20907370.5114
        49.700          40.3004
 123398534.023 7  96154670.12644  23481960.175    23481953.0614
        43.400          25.8004
 131689428.565 6 102615131.52342  25059663.557    25059663.8874
        36.800          15.6004
 15  9 17  0  1  0.0000000  0  9G22G14G16G29G18G27G26G21G31
 106328113.814 8  82853034.46947  20233566.717    20233557.1424
        51.000          44.0004
 122999002.380 6  95843368.58442  23405931.881    23405928.4024
        38.000          17.4004
 110954998.692 8  86458407.74646  21114033.633    21114026.4614
        49.700          39.0004
 126376425.136 6  98475134.35743  24048635.543    24048633.9384
        39.700          21.5004
 113675132.170 8  88577993.05146  21631659.092    21631651.0404
        48.900          36.5004
 118766120.490 7  92545012.89545  22600442.112    22600436.9914
        46.400          33.5004
 109915823.775 8  85648676.19746  20916285.461    20916281.9824
        49.900          40.6004
 123435855.732 7  96183751.93844  23489062.630    23489054.9304
        42.400          26.0004
 131727537.898 6 102644827.05542  25066917.260    25066914.5424
        36.400          17.4004
 15  9 17  0  1 30.0000000  0  9G22G14G16G29G18G27G26G21G31
 106326291.174 8  82851614.23347  20233220.237    20233210.4274
        49.500          43.8004
 122932083.971 6  95791224.46243  23393198.070    23393194.0054
        37.300          18.3004
 110946338.049 8  86451659.17846  21112386.157    21112378.7504
        49.800          39.2004
 126440790.885 6  98525289.32743  24060882.066    24060882.7484
        36.800          21.8004
 113740325.558 8  88628793.06246  21644064.995    21644056.4744
        49.400          37.4004
 118689129.848 7  92485020.24145  22585791.596    22585786.1234
        47.000          33.7004
 109963139.434 8  85685545.48046  20925289.294    20925285.8734
        49.700          39.7004
 123473092.546 7  96212767.57944  23496148.581    23496140.4134
        42.200          25.3004
 131765361.445 6 102674299.90942  25074114.775    25074112.0574
        37.700          16.3004
 15  9 17  0  2  0.0000000  0  9G22G14G16G29G18G27G26G21G31
 106324959.968 8  82850576.95347  20232966.627    20232956.9934
        50.500          44.0004
 122865179.943 6  95739091.56843  23380466.405    23380462.2814
        36.800          18.3004
 110938244.526 8  86445352.53146  21110845.651    21110838.7134
        49.600          39.4004
 126505408.289 6  98575640.40443  24073179.543    24073179.6384
        36.200          21.5004
 113805804.956 8  88679815.93846  21656525.438    21656517.5624
        49.600          36.5004
 118612172.307 7  92425053.35445  22571147.155    22571140.8624
        47.000          33.1004
 110010936.914 8  85722790.22246  20934384.926    20934381.2714
        49.100          40.4004
 123510244.490 7  96241717.10344  23503218.729    23503211.0884
        42.800          25.8004
 131802897.104 6 102703548.45842  25081257.526    25081254.2224
        36.400          17.4004
 15  9 17  0  2 30.0000000  0  9G22G14G16G29G18G27G26G21G31
 106324119.823 8  82849922.29347  20232806.923    20232796.5864
        49.400          44.0004
 122798293.054 6  95686972.04742  23367738.679    23367733.5584
        36.300          17.4004
 110930718.361 8  86439487.98246  21109413.396    21109406.5764
        49.400          38.9004
 126570277.252 6  98626187.46443  24085523.333    24085522.7254
        38.300          20.9004
 113871567.891 8  88731059.75246  21669040.163    21669031.8774
        48.400          37.0004
 118535249.689 7  92365113.68045  22556508.470    22556502.9394
        47.100          32.3004
 110059214.162 8  85760408.79746  20943571.838    20943568.6524
        49.900          40.5004
 123547311.758 6  96270600.62844  23510272.394    23510264.8114
        41.400          26.9004
 131840143.388 6 102732571.46143  25088346.105    25088343.0364
        37.600          18.3004
 15  9 17  0  3  0.0000000  0  9G22G14G16G29G18G27G26G21G31
 106323770.365 8  82849649.99247  20232740.766    20232730.7224
        49.500          43.6004
 122731426.259 6  95634868.14343  23355014.402    23355009.5164
        37.700          18.3004
 110923759.558 8  86434065.53146  21108089.000    21108081.7104
        49.600          38.2004
 126635397.235 6  98676930.20043  24097916.847    24097914.7164
        38.700          22.6004
 113937612.561 8  88782523.08146  21681607.660    21681599.7854
        49.300          36.5004
 118458364.059 7  92305202.86245  22541876.763    22541873.1664
        45.600          31.6004
 110107969.132 8  85798399.62546  20952849.591    20952846.5814
        49.600          40.4004
 123584294.805 7  96299418.51644  23517309.819    23517302.2364
        42.800          26.7004
 131877099.396 5 102761368.35942  25095377.448    25095376.7234
        35.000          16.9004
 15  9 17  0  3 30.0000000  0  9G22G14G16G29G18G27G26G21G31
 106323911.532 8  82849759.99547  20232767.729    20232757.3924
        49.800          44.0004
 122664582.743 6  95582782.36943  23342293.037    23342290.3194
        36.900          19.3004
 110917368.737 8  86429085.65746  21106872.555    21106865.4424
        49.400          37.8004
 126700769.332 6  98727869.34643  24110356.120    24110355.5714
        37.500          22.6004
 114003937.017 8  88834204.45445  21694228.939    21694220.2434
        48.800          35.6004
 118381518.021 7  92245322.87245  22527253.905    22527249.5474
        46.200          31.6004
 110157200.321 8  85836761.53146  20962217.554    20962215.2464
        49.500          39.9004
 123621194.376 7  96328171.34744  23524331.400    23524324.3454
        42.500          24.7004
 131913764.297 5 102789938.35942  25102354.706    25102354.0404
        35.700          17.4004
 15  9 17  0  4  0.0000000  0  9G22G14G16G29G18G27G26G21G31
 106324540.895 8  82850250.41047  20232887.192    20232877.2074
        49.800          44.2004
 122597763.829 6  95530715.80343  23329578.258    23329574.8374
        37.500          19.6004
 110911544.584 8  86424547.33946  21105765.106    21105757.0544
        48.600          38.1004
 126766391.422 6  98779003.29443  24122843.201    24122841.6564
        37.500          21.3004
 114070537.767 8  88886101.10446  21706902.272    21706894.2794
        48.900          36.8004
 118304711.992 7  92185474.06845  22512637.710    22512634.4064
        45.100          32.8004
 110206904.061 8  85875491.66146  20971676.508    20971673.6734
        49.800          40.1004
 123658009.253 7  96356858.22244  23531337.361    23531329.7794
        42.700          25.2004
 131950135.391 5 102818279.43242  25109275.693    25109274.1484
        35.500          17.8004
 15  9 17  0  4 30.0000000  0  9G22G14G16G29G18G27G26G21G31
 106325658.030 8  82851120.91647  20233099.494    20233089.5674
        51.000          44.1004
 122530972.563 6  95478670.74743  23316868.470    23316864.3464
        37.700          19.0004
 110906287.538 8  86420450.93246  21104764.627    21104757.1034
        49.000          39.0004
 126832263.577 5  98830332.12643  24135379.233    24135376.6334
        35.800          18.6004
 114137412.737 8  88938211.43746  21719628.115    21719620.0644
        49.400          36.0004
 118227948.145 7  92125658.13645  22498030.038    22498026.8524
        45.700          32.7004
 110257078.393 8  85914588.48346  20981224.152    20981221.4344
        49.900          40.1004
 123694739.489 7  96385479.11944  23538326.455    23538319.0494
        42.400          25.3004
 131986211.797 6 102846390.88643  25116141.821    25116140.1584
        37.900          21.3004
 15  9 17  0  5  0.0000000  0  9G22G14G16G29G18G27G26G21G31
 106327262.484 8  82852371.13847  20233404.749    20233394.9984
        49.100          43.8004
 122464211.914 6  95426649.58442  23304163.477    23304159.7634
        37.700          17.4004
 110901597.037 8  86416795.97246  21103872.016    21103864.0824
        49.800          38.9004
 126898385.864 5  98881855.83643  24147960.423    24147959.5814
        35.200          18.6004
 114204559.766 8  88990533.76646  21732406.088    21732397.9784
        48.900          36.5004
 118151228.572 7  92065876.68345  22483431.082    22483427.7784
        45.800          33.7004
 110307721.247 8  85954050.38946  20990861.806    20990857.8584
        50.200          39.8004
 123731385.932 7  96414034.72944  23545300.348    23545292.5314
        43.300          26.9004
 132021992.222 6 102874271.70143  25122950.770    25122948.2874
        36.900          19.9004
 15  9 17  0  5 30.0000000  0  9G22G14G16G29G18G27G26G21G31
 106329353.867 8  82854000.78647  20233803.026    20233792.9824
        51.600          43.9004
 122397485.089 6  95374654.71943  23291466.376    23291462.1344
        37.700          18.3004
 110897473.540 8  86413582.84046  21103087.484    21103079.7264
        50.500          38.8004
 126964758.490 6  98933574.60443  24160592.861    24160589.5574
        36.300          19.0004
 114271976.997 8  89043066.62846  21745235.208    21745227.0394
        48.600          36.8004
 118074555.592 7  92006131.54045  22468840.668    22468836.7784
        46.000          34.0004
 110358830.808 8  85993875.96046  21000587.331    21000583.6174
        49.900          39.7004
 123767948.840 7  96442525.24344  23552258.046    23552250.4634
        42.600          25.6004
 132057475.688 6 102901921.09743  25129701.837    25129701.2294
        37.900          19.9004
 15  9 17  0  6  0.0000000  0  9G22G14G16G29G18G27G26G21G31
 106331931.499 8  82856009.34047  20234293.013    20234283.6144
        49.100          43.9004
 122330794.828 6  95322688.35043  23278774.710    23278770.9964
        36.900          18.3004
 110893916.936 8  86410811.43846  21102410.587    21102403.4734
        49.600          38.9004
 127031381.355 5  98985488.36943  24173268.714    24173267.9304
        34.600          19.3004
 114339662.451 8  89095808.50146  21758115.790    21758108.0914
        49.200          36.3004
 117997931.203 7  91946424.28045  22454259.640    22454255.2814
        45.700          33.5004
 110410404.736 8  86034063.37346  21010401.211    21010397.8494
        49.400          39.7004
 123804428.550 7  96470950.94444  23559200.938    23559192.5934
        43.300          26.5004
 132092661.174 6 102929338.29843  25136398.141    25136396.8304
        36.700          18.6004
 15  9 17  0  6 30.0000000  0  9G22G14G16G29G18G27G26G21G31
 106334993.189 8  82858395.07047  20234876.272    20234866.3454
        49.400          44.4004
 122264143.085 6  95270752.05643  23266091.583    23266087.2834
        38.100          19.0004
 110890926.460 8  86408481.18446  21101841.113    21101834.1764
        50.300          38.6004
 127098252.989 5  99037596.01743  24185994.147    24185993.3054
        35.400          20.4004
 114407612.740 8  89148756.72346  21771046.114    21771038.3554
        48.800          36.8004
 117921356.625 7  91886755.82145  22439688.398    22439683.5714
        46.800          34.0004
 110462440.056 8  86074610.31446  21020303.891    21020300.5874
        49.600          39.7004
 123840824.786 7  96499311.58444  23566126.131    23566119.0764
        42.800          26.4004
 132127546.812 5 102956521.93343  25143036.365    25143034.7614
        35.400          18.3004
 15  9 17  0  7  0.0000000  0  9G22G14G16G29G18G27G26G21G31
 106338539.220 8  82861158.21347  20235550.983    20235540.7634
        51.400          43.9004
 122197533.211 6  95218848.34443  23253415.452    23253412.7934
        36.000          18.3004
 110888502.462 7  86406592.32846  21101379.749    21101372.9294
        47.200          38.5004
 127165374.393 6  99089898.31343  24198769.365    24198766.4714
        38.100          19.9004
 114475826.296 8  89201910.09645  21784026.044    21784019.1654
        48.300          35.9004
 117844834.495 7  91827128.21445  22425126.709    22425121.1784
        46.800          35.4004
 110514935.109 8  86115515.49346  21030293.221    21030289.8584
        49.800          39.7004
 123877138.603 7  96527608.00544  23573035.921    23573029.5694
        42.000          27.1004
 132162132.004 6 102983471.37843  25149618.003    25149615.2854
        36.700          18.3004
 15  9 17  0  7 30.0000000  0  9G22G14G16G29G18G27G26G21G31
 106342568.124 8  82864297.62047  20236317.948    20236307.6114
        51.300          44.7004
 122130967.957 6  95166979.42043  23240750.792    23240746.0824
        36.700          18.6004
 110886644.630 7  86405144.65446  21101026.595    21101018.6024
        47.500          37.4004
 127232744.343 6  99142394.27143  24211587.420    24211586.9884
        36.200          20.1004
 114544300.761 8  89255266.76146  21797056.670    21797049.3814
        48.800          36.4004
 117768366.434 7  91767542.75045  22410574.486    22410570.1864
        46.300          34.2004
 110567887.292 8  86156776.85746  21040369.874    21040366.1024
        49.100          38.6004
 123913369.743 6  96555840.00444  23579931.219    23579924.3994
        41.700          26.6004
 132196414.761 6 103010185.17042  25156141.275    25156139.9054
        36.900          17.8004
 15  9 17  0  8  0.0000000  0  9G22G14G16G29G18G27G26G21G31
 106347079.991 8  82867813.35947  20237176.624    20237165.9944
        50.500          44.5004
 122064450.351 6  95115147.63343  23228091.220    23228088.3264
        38.000          19.9004
 110885353.151 8  86404138.28446  21100780.427    21100773.0794
        48.400          37.5004
 127300363.340 5  99195084.25843  24224455.397    24224454.9064
        35.500          19.6004
 114613034.568 8  89308825.51246  21810136.132    21810128.7844
        48.600          36.5004
 117691954.997 7  91708001.40845  22396033.799    22396029.4404
        46.100          34.5004
 110621294.790 8  86198393.02246  21050532.984    21050529.0354
        49.000          39.2004
 123949518.680 6  96584007.94844  23586809.839    23586803.3124
        40.800          25.5004
 132230395.023 5 103036663.28343  25162607.693    25162607.3794
        34.600          18.6004
 15  9 17  0  8 30.0000000  0  9G22G14G16G29G18G27G26G21G31
 106352073.247 8  82871704.20747  20238126.530    20238116.3104
        51.500          44.5004
 121997983.045 6  95063355.02643  23215443.247    23215440.1774
        39.500          20.6004
 110884627.190 7  86403572.57046  21100642.546    21100635.0804
        47.500          38.0004
 127368230.416 5  99247967.56043  24237369.659    24237370.2234
        34.800          19.6004
 114682025.128 8  89362584.34545  21823265.199    21823256.7374
        49.100          35.8004
 117615601.767 7  91648505.42945  22381504.811    22381500.3344
        47.000          34.3004
 110675154.830 8  86240361.81246  21060782.027    21060778.8404
        49.500          39.7004
 123985585.549 6  96612111.92444  23593672.698    23593666.1714
        41.100          26.3004
 132264070.796 5 103062904.15043  25169015.789    25169015.9434
        35.700          18.3004
 15  9 17  0  9  0.0000000  0  9G22G14G16G29G18G27G26G21G31
 106357546.314 8  82875968.93847  20239168.083    20239157.9214
        50.700          43.7004
 121931567.906 6  95011603.04943  23202804.839    23202801.3004
        39.900          21.5004
 110884465.993 7  86403446.94246  21100612.378    21100604.7954
        47.400          38.6004
 127436345.116 6  99301043.81643  24250333.186    24250331.6404
        36.800          20.1004
 114751269.116 8  89416540.65946  21836441.513    21836433.6384
        49.300          36.2004
 117539308.183 7  91589055.92045  22366986.770    22366982.3524
        47.000          34.4004
 110729464.430 8  86282680.91146  21071117.252    21071113.7144
        49.900          40.0004
 124021570.481 6  96640152.06644  23600521.365    23600514.2514
        41.400          24.7004
 132297440.525 5 103088906.50342  25175366.594    25175365.2834
        33.900          16.3004
 15  9 17  0  9 30.0000000  0  9G22G14G16G29G18G27G26G21G31
 106363498.329 8  82880606.87147  20240300.698    20240290.3614
        50.800          43.5004
 121865208.010 6  94959894.07943  23190177.447    23190173.0884
        39.500          21.8004
 110884869.377 7  86403761.24746  21100689.218    21100681.2264
        47.700          39.2004
 127504706.996 6  99354312.65443  24263341.577    24263339.7384
        36.200          19.6004
 114820764.464 8  89470692.83246  21849666.599    21849658.3724
        49.100          36.0004
 117463076.296 7  91529654.47345  22352479.845    22352475.7214
        47.500          34.1004
 110784221.304 8  86325348.53646  21081537.120    21081533.9334
        49.700          39.4004
 124057473.190 6  96668128.13644  23607353.305    23607346.1914
        41.100          26.0004
 132330503.272 6 103114669.59943  25181658.950    25181655.7634
        37.300          18.3004
 15  9 17  0 10  0.0000000  0  9G22G14G16G29G18G27G26G21G31
 106369929.091 8  82885617.85047  20241524.109    20241514.0074
        50.900          43.5004
 121798906.762 6  94908230.88643  23177560.379    23177556.6074
        39.900          21.7004
 110885837.261 8  86404515.41246  21100873.256    21100865.6744
        48.100          38.6004
 127573316.314 5  99407774.33843  24276397.128    24276395.3484
        33.600          18.6004
 114890509.543 8  89525039.60545  21862938.851    21862930.4484
        49.200          35.9004
 117386908.796 7  91470303.22445  22337985.929    22337981.2184
        47.300          34.3004
 110839423.673 8  86368363.29646  21092041.487    21092038.6524
        49.400          40.3004
 124093294.818 6  96696041.01144  23614170.086    23614163.2074
        41.300          27.7004
 132363258.336 5 103140192.99543  25187892.084    25187890.3624
        35.700          19.0004
 15  9 17  0 10 30.0000000  0  9G22G14G16G29G18G27G26G21G31
 106376837.617 8  82891001.11147  20242838.862    20242828.8184
        50.800          44.0004
 121732667.112 6  94856615.64843  23164956.236    23164952.1124
        40.400          22.9004
 110887369.667 7  86405709.48646  21101164.568    21101156.9854
        47.300          38.2004
 127642172.564 5  99461428.43443  24289500.375    24289499.4164
        33.800          19.3004
 114960502.487 8  89579579.50546  21876257.495    21876249.8544
        48.400          36.3004
 117310807.803 7  91411003.76645  22323503.774    22323500.2364
        47.100          34.8004
 110895069.225 8  86411723.40146  21102631.037    21102627.1474
        49.600          40.0004
 124129035.809 6  96723891.04844  23620971.050    23620964.4054
        41.300          24.7004
 132395704.478 5 103165475.64043  25194065.284    25194064.7934
        35.800          18.3004
 15  9 17  0 11  0.0000000  0  9G22G14G16G29G18G27G26G21G31
 106384222.496 8  82896755.55247  20244244.136    20244234.3854
        51.000          43.9004
 121666491.195 6  94805050.06643  23152362.900    23152358.6594
        40.600          22.6004
 110889465.563 7  86407342.61846  21101563.673    21101556.3254
        47.800          39.0004
 127711275.130 5  99515274.44843  24302650.709    24302649.2224
        35.500          18.6004
 115030740.040 8  89634310.01846  21889624.129    21889615.4334
        49.100          36.1004
 117234774.907 7  91351757.39145  22309035.323    22309031.6094
        46.500          34.9004
 110951155.064 8  86455426.58146  21113303.523    21113300.2774
        49.400          40.1004
 124164696.112 7  96751678.22244  23627756.885    23627749.0104
        42.000          26.7004
 132427840.722 6 103190516.79343  25200181.497    25200179.5414
        37.300          19.0004
 15  9 17  0 11 30.0000000  0  9G22G14G16G29G18G27G26G21G31
 106392082.705 8  82902880.38947  20245739.890    20245729.7884
        50.900          44.2004
 121600382.139 6  94753536.62443  23139781.781    23139778.5944
        39.800          22.3004
 110892124.905 8  86409414.81146  21102069.742    21102061.9844
        49.000          38.5004
 127780623.868 5  99569312.26543  24315846.785    24315845.1224
        35.000          19.0004
 115101220.082 8  89689229.49145  21903035.658    21903026.9034
        48.700          35.2004
 117158812.211 7  91292565.72145  22294580.297    22294576.8174
        46.100          35.5004
 111007678.822 8  86499470.99746  21124059.791    21124056.1944
        50.100          39.7004
 124200276.088 7  96779402.77944  23634527.382    23634521.0304
        42.000          24.5004
 132459665.549 5 103215315.32543  25206236.144    25206236.0644
        35.500          20.6004
 15  9 17  0 12  0.0000000  0  9G22G14G16G29G18G27G26G21G31
 106400418.342 8  82909375.68347  20247326.103    20247316.6444
        50.800          44.2004
 121534343.813 6  94702078.28443  23127215.523    23127211.8094
        40.500          22.6004
 110895348.035 8  86411926.32746  21102683.486    21102675.7284
        48.400          38.9004
                  99623741.69443  24329087.513
        31.800          19.0004
 115171941.991 8  89744337.42845  21916493.721    21916485.1424
        48.200          35.6004
 117082922.887 7  91233431.23945  22280139.557    22280135.4914
        47.200          35.9004
 111064639.146 8  86543855.59346  21134899.180    21134895.5244
        49.500          39.9004
 124235777.745 6  96807066.34343  23641283.799    23641275.7484
        40.900          23.5004
 132491178.909 5 103239871.11142  25212232.147    25212231.5404
        32.300          16.3004
 15  9 17  0 12 30.0000000  0  9G22G14G16G29G18G27G26G21G31
 106409226.306 8  82916239.03147  20249002.275    20248992.3484
        50.900          44.0004
 121468376.951 6  94650675.63943  23114662.719    23114659.0054
        39.900          22.6004
 110899132.484 8  86414875.21046  21103403.678    21103396.3304
        50.000          38.9004
 127920208.785 5  99678169.62242  24342380.998    24342380.0974
        33.700          17.8004
 115242900.993 7  89799630.11645  21929996.596    21929988.1354
        47.600          34.7004
 117007107.049 7  91174354.00046  22265712.325    22265707.6154
        47.900          36.7004
 111122031.557 8  86588576.88746  21145820.614    21145817.0764
        49.600          39.2004
 124271198.479 6  96834666.84544  23648023.450    23648016.5714
        40.400          25.8004
 132522377.897 5 103264181.98042  25218170.880    25218168.8074
        35.600          14.8004
 15  9 17  0 13  0.0000000  0  9G22G14G16G29G18G27G26G21G31
 106418506.276 8  82923470.17847  20250768.038    20250758.5804
        50.600          44.1004
 121402485.253 6  94599331.54644  23102123.203    23102120.0754
        40.000          24.5004
 110903478.450 8  86418261.64146  21104229.942    21104222.7114
        50.200          38.8004
 127990293.119 5  99732780.57742  24355716.840    24355716.8774
        33.700          16.9004
 115314095.771 7  89855106.53545  21943544.420    21943536.6034
        47.500          34.6004
 116931367.375 7  91115336.12646  22251299.158    22251294.5654
        46.700          36.4004
 111179854.206 8  86633633.43746  21156823.732    21156820.4284
        49.100          39.1004
 124306539.884 6  96862205.53344  23654749.530    23654741.8304
        41.100          26.5004
 132553262.311 6 103288247.64842  25224047.580    25224045.5074
        36.600          16.9004
 15  9 17  0 13 30.0000000  0  9G22G14G16G29G18G27G26G21G31
 106428257.158 8  82931068.26547  20252623.482    20252613.7894
        50.500          43.8004
 121336671.502 6  94548048.21644  23089599.844    23089596.2474
        41.400          25.3004
 110908385.610 8  86422085.36546  21105164.438    21105156.7974
        49.300          39.1004
 128060629.681 5  99787587.93643  24369099.760    24369099.3874
        32.500          18.3004
 115385524.219 7  89910765.02945  21957136.705    21957128.7134
        46.700          35.5004
 116855706.239 7  91056379.43145  22236901.420    22236896.9444
        47.100          35.7004
 111238104.849 8  86679023.47546  21167908.631    21167904.9174
        49.000          39.0004
 124341802.288 6  96889682.64844  23661459.500    23661452.9724
        41.300          24.8004
 132583830.709 6 103312067.09542  25229865.387    25229863.3734
        37.600          17.4004
 15  9 17  0 14  0.0000000  0  9G22G14G16G29G18G27G26G21G31
 106438478.879 8  82939033.24547  20254568.782    20254558.9724
        50.100          44.2004
 121270939.388 7  94496828.45843  23077092.027    23077087.6104
        42.100          23.8004
 110913854.237 8  86426346.60146  21106204.563    21106197.0394
        49.000          38.6004
 128131202.891 5  99842579.90042  24382530.957    24382529.9394
        32.000          16.9004
 115457184.502 7  89966604.17345  21970773.530    21970765.0104
        46.500          35.3004
 116780126.501 7  90997486.20045  22222518.988    22222514.4544
        46.400          35.9004
 111296781.737 8  86724745.64746  21179074.510    21179071.7344
        48.500          38.6004
 124376986.946 6  96917099.19044  23668154.866    23668147.4014
        40.900          25.6004
 132614083.462 6 103335640.66142  25235621.653    25235620.5184
        36.300          16.9004
 15  9 17  0 14 30.0000000  0  9G22G14G16G29G18G27G26G21G31
 106449169.721 8  82947363.75947  20256603.167    20256593.3574
        50.300          44.0004
 121205291.309 7  94445674.19344  23064598.197    23064594.9524
        42.000          24.7004
 110919883.239 8  86431044.50946  21107351.863    21107344.8084
        48.000          38.3004
 128202019.648 5  99897761.62742  24396007.192    24396004.7674
        33.500          16.9004
 115529074.196 7  90022622.07945  21984453.085    21984444.9164
        46.400          34.3004
 116704629.779 7  90938657.64445  22208152.204    22208147.2594
        47.000          35.8004
 111355881.805 7  86770797.57646  21190319.822    21190317.7494
        46.600          38.5004
 124412093.933 6  96944455.19343  23674835.250    23674828.6644
        40.900          23.5004
 132644018.791 6 103358966.85742  25241318.932    25241315.9214
        37.300          17.4004
 15  9 17  0 15  0.0000000  0  9G22G14G16G29G18G27G26G21G31
 106460328.229 8  82956058.70447  20258726.530    20258716.6614
        51.600          43.9004
 121139729.742 6  94394587.34644  23052122.032    23052118.9034
        41.900          24.7004
 110926471.794 8  86436178.41446  21108605.785    21108598.2614
        48.800          38.4004
 128273087.401 5  99953129.71142  24409528.902    24409527.7084
        32.900          17.4004
 115601190.768 7  90078816.78345  21998176.768    21998168.2474
        47.200          34.4004
 116629217.962 7  90879895.24245  22193801.639    22193796.9874
        46.700          35.5004
 111415402.309 7  86817177.12446  21201646.794    21201644.1934
        47.600          38.1004
 124447123.236 6  96971750.67944  23681501.133    23681494.9574
        40.700          24.4004
 132673635.441 6 103382044.74642  25246954.973    25246953.8374
        37.500          17.4004
 15  9 17  0 15 30.0000000  0  9G22G14G16G29G18G27G26G21G31
 106471953.272 8  82965117.18947  20260938.488    20260928.7374
        51.100          43.7004
 121074258.061 6  94343570.54443  23039662.912    23039659.5504
        41.100          22.3004
 110933619.070 8  86441747.68246  21109965.937    21109958.4144
        48.900          39.1004
 128344389.617 5 100008689.76042  24423098.094    24423096.3734
        34.400          17.4004
 115673531.843 7  90135186.42545  22011942.813    22011933.8824
        47.800          33.4004
 116553893.060 7  90821200.56845  22179468.072    22179463.0104
        47.000          35.7004
 111475340.515 8  86863882.15646  21213052.709    21213050.2844
        48.600          38.3004
 124482075.215 6  96998985.90444  23688152.986    23688145.5794
        41.600          25.4004
 132702932.477 6 103404873.53142  25252529.340    25252529.2594
        36.200          17.8004
 15  9 17  0 16  0.0000000  0  9G22G14G16G29G18G27G26G21G31
 106484044.996 8  82974539.31247  20263239.697    20263229.5944
        50.000          43.3004
 121008879.803 6  94292626.53744  23027221.344    23027218.3924
        41.300          25.2004
 110941326.258 8  86447753.24546  21111432.829    21111425.7154
        49.200          39.3004
                 100064444.37242  24436710.711
        32.600          17.8004
 115746096.206 7  90191730.05445  22025751.542    22025743.0214
        46.300          34.4004
 116478658.581 7  90762576.34245  22165150.960    22165146.6014
        46.100          35.8004
 111535695.363 8  86910911.83246  21224538.406    21224535.3954
        48.300          37.9004
 124516951.747 7  97026162.32344  23694789.970    23694782.3294
        42.000          24.7004
 132731910.150 6 103427453.44443  25258043.524    25258043.6194
        36.700          18.3004
 15  9 17  0 16 30.0000000  0  9G22G14G16G29G18G27G26G21G31
 106496599.570 8  82984322.09047  20265629.132    20265619.0294
        51.000          43.4004
 120943595.073 7  94241755.39644  23014799.023    23014795.1924
        42.900          25.7004
 110949589.464 8  86454192.06446  21113005.033    21112997.8614
        49.700          38.4004
 128487727.241 5 100120385.38143  24450372.544    24450372.1124
        32.600          18.3004
 115818879.172 7  90248444.03345  22039601.770    22039593.3094
        47.300          34.0004
 116403514.109 7  90704022.26745  22150851.417    22150846.5314
        46.700          35.0004
 111596461.503 8  86958262.00546  21236101.987    21236098.3314
        48.200          38.5004
 124551750.345 6  97053278.03144  23701411.423    23701403.4894
        41.000          24.0004
 132760564.873 5 103449781.78343  25263496.066    25263496.1624
        34.000          18.3004
 15  9 17  0 17  0.0000000  0  9G22G14G16G29G18G27G26G21G31
 106509618.417 8  82994466.64147  20268106.126    20268096.6094
        51.200          43.8004
 120878409.592 7  94190961.61544  23002395.082    23002390.7244
        43.800          27.6004
 110958410.341 8  86461065.44246  21114683.569    21114676.1624
        49.900          39.5004
 128559755.247 5 100176510.97442  24464078.201    24464079.0594
        30.100          16.9004
 115891881.053 7  90305328.57145  22053493.450    22053485.1064
        45.500          32.6004
 116328464.287 7  90645541.93846  22136570.140    22136564.8434
        45.400          36.1004
 111657638.995 8  87005932.70346  21247743.726    21247740.6574
        48.000          38.6004
 124586474.162 7  97080335.46244  23708019.950    23708012.7774
        42.600          24.9004
 132788898.042 5 103471859.52142  25268889.022    25268888.0624
        35.000          16.3004
 15  9 17  0 17 30.0000000  0  9G22G14G16G29G18G27G26G21G31
 106523098.109 8  83004970.29647  20270671.035    20270661.4014
        49.100          43.9004
 120813324.016 7  94140245.63844  22990009.622    22990005.5564
        43.600          28.3004
 110967786.450 8  86468371.46746  21116467.779    21116460.7824
        50.100          39.2004
 128632004.041 5 100232824.36742  24477829.559    24477831.3544
        31.000          17.8004
 115965097.514 7  90362380.30045  22067426.256    22067418.0294
        46.600          34.4004
 116253509.211 7  90587135.41345  22122307.014    22122301.8934
        46.400          35.6004
 111719223.014 7  87053920.18046  21259462.545    21259459.9444
        47.500          38.6004
 124621121.813 7  97107333.54444  23714613.076    23714606.6654
        42.800          25.6004
 132816906.933 5 103493684.56042  25274218.241    25274217.8684
        35.000          14.8004
 15  9 17  0 18  0.0000000  0  9G22G14G16G29G18G27G26G21G31
 106537038.119 8  83015832.63247  20273323.669    20273313.9774
        49.200          43.5004
 120748341.837 7  94089610.26344  22977644.023    22977639.7234
        43.900          26.9004
 110977718.029 8  86476110.33546  21118358.042    21118350.5764
        49.300          39.9004
 128704511.407 5 100289323.49142  24491629.505    24491630.3034
        32.400          16.9004
 116038527.224 7  90419598.24045  22081399.103    22081390.9934
        46.200          33.4004
 116178651.725 7  90528804.94746  22108061.885    22108056.8824
        45.800          36.1004
 111781211.720 8  87102222.98146  21271258.852    21271255.9584
        48.500          38.5004
 124655694.476 6  97134273.18744  23721192.305    23721185.0744
        40.800          24.4004
 132844591.074 5 103515256.42442  25279486.210    25279483.9024
        31.800          13.9004
 15  9 17  0 18 30.0000000  0  9G22G14G16G29G18G27G26G21G31
 106551437.759 8  83027053.13547  20276063.964    20276054.1544
        50.500          44.2004
 120683466.749 7  94039058.31944  22965299.514    22965294.5104
        43.600          27.7004
 110988204.359 8  86484281.46646  21120353.817    21120345.8254
        50.400          39.3004
 128777258.802 5 100346009.56542  24505472.521    24505473.8474
        31.900          17.4004
 116112168.231 7  90476980.80645  22095412.805    22095404.4614
        45.800          34.0004
 116103894.697 7  90470552.74545  22093835.990    22093830.9864
        45.500          35.5004
 111843603.114 8  87150839.58546  21283131.705    21283128.1674
        49.200          39.1004
 124690193.000 6  97161155.05343  23727756.217    23727748.9284
        40.200          23.9004
 132871950.435 5                  25284693.005
        34.800
 15  9 17  0 19  0.0000000  0  9G22G14G16G29G18G27G26G21G31
 106566295.301 8  83038630.43047  20278891.770    20278881.5504
        49.800          43.9004
 120618701.098 7  93988591.65844  22952974.175    22952969.9924
        44.300          27.6004
 110999244.242 8  86492883.94246  21122454.187    21122446.6054
        49.200          38.6004
 128850245.086 5 100402881.91143  24519361.355    24519361.9204
        34.500          18.3004
 116186017.789 7  90534525.85845  22109466.262    22109457.8594
        45.600          33.6004
 116029239.762 7  90412380.11845  22079629.115    22079624.3454
        44.700          35.6004
 111906394.019 8  87199767.48746  21295080.245    21295077.2344
        48.700          38.8004
 124724617.366 6  97187979.12943  23734307.821    23734300.2394
        40.800          22.8004
 132898983.394 5                  25289836.358
        33.400
 15  9 17  0 19 30.0000000  0  9G22G14G16G29G18G27G26G21G31
 106581609.348 8  83050563.44847  20281805.646    20281795.7784
        51.200          43.9004
 120554047.837 7  93938212.56144  22940670.517    22940666.6854
        43.400          27.6004
 111010837.045 8  86501917.25846  21124659.967    21124653.3814
        50.000          39.0004
 128923469.768 5 100459939.95743  24533296.864    24533295.6704
        35.700          19.0004
 116260073.798 7  90592231.80345  22123558.565    22123550.0444
        46.000          33.3004
 115954689.135 7  90354288.77846  22065442.834    22065438.0064
        45.600          36.1004
 111969581.746 8  87249004.60546  21307104.710    21307101.5234
        49.100          38.5004
 124758968.002 6  97214745.75343  23740844.594    23740837.1884
        40.400          22.9004
 132925689.142 5                  25294918.715
        34.800
 15  9 17  0 20  0.0000000  0  9G22G14G16G29G18G27G26G21G31
 106597379.105 8  83062851.56347  20284806.966    20284796.4534
        50.000          43.5004
 120489510.024 7  93887923.43644  22928389.250    22928385.3604
        44.000          27.5004
 111022982.219 8  86511380.98846  21126971.558    21126964.3274
        49.200          38.8004
 128996932.140 5 100517183.20142  24547274.955    24547274.8754
        33.900          17.8004
 116334334.135 7  90650096.96145  22137690.190    22137681.7284
        45.900          33.8004
 115880245.386 7  90296280.70745  22051276.650    22051271.0614
        45.500          35.6004
 112033164.047 8  87298549.17146  21319203.590    21319200.8724
        48.000          38.9004
 124793245.794 6  97241455.61943  23747367.950    23747360.4264
        40.400          22.6004
 132952067.223 5                  25299937.673
        32.500
 15  9 17  0 20 30.0000000  0  9G22G14G16G29G18G27G26G21G31
 106613602.792 8  83075493.39247  20287893.911    20287883.9264
        50.100          43.7004
 120425090.150 7  93837726.20944  22916129.464    22916126.3354
        43.400          26.4004
 111035678.533 8  86521274.17346  21129387.611    21129379.7944
        49.500          39.5004
 129070631.686 5 100574611.32742  24561300.549    24561300.1174
        33.300          16.9004
 116408796.628 7  90708119.64145  22151859.461    22151851.5274
        45.200          32.4004
 115805910.378 7  90238357.35046  22037131.559    22037126.1454
        45.800          36.9004
 112097137.848 8  87348398.80846  21331377.532    21331374.9314
        48.400          38.3004
 124827451.310 6  97268109.16844  23753877.528    23753870.2394
        41.400          24.7004
 132978116.321 5                  25304895.032
        33.300
 15  9 17  0 21  0.0000000  0  9G22G14G16G29G18G27G26G21G31
 106630278.902 8  83088487.76347  20291067.052    20291057.0664
        50.900          43.4004
 120360791.067 7  93787623.09344  22903894.560    22903890.1424
        43.700          28.6004
 111048924.499 8  86531595.68046  21131908.023    21131900.8514
        49.200          38.9004
 129144567.878 5 100632223.81842  24575370.108    24575370.4374
        32.900          16.3004
 116483458.483 7  90766297.66645  22166067.052    22166059.1764
        45.400          32.8004
 115731686.152 7  90180520.33646  22023005.991    22023001.8674
        44.600          36.2004
 112161500.281 8  87398551.27746  21343625.443    21343622.3154
        48.800          38.0004
 124861584.161 6  97294706.09444  23760372.164    23760364.9924
        41.300          25.4004
 133003835.314 5                  25309790.438
        35.500
 15  9 17  0 21 30.0000000  0  9G22G14G16G29G18G27G26G21G31
 106647406.148 8  83101833.66647  20294326.121    20294316.6044
        49.600          43.5004
 120296615.484 7  93737616.19544  22891682.041    22891678.0934
        44.000          28.6004
 111062719.848 8  86542345.25146  21134533.391    21134526.2774
        48.500          38.6004
 129218739.741 5 100690019.93342  24589485.132    24589486.5164
        32.800          16.9004
 116558317.407 7  90824629.26045  22180311.720    22180304.1384
        44.800          33.2004
 115657575.015 7  90122771.44146  22008903.890    22008899.0034
        45.300          36.8004
 112226248.706 8  87449004.50946  21355947.152    21355944.2004
        49.100          38.2004
 124895645.393 6  97321247.19144  23766853.903    23766846.5554
        41.600          24.0004
 133029223.271 6                  25314621.007
        37.100
 15  9 17  0 22  0.0000000  0  9G22G14G16G29G18G27G26G21G31
 106664983.391 8  83115530.20847  20297671.084    20297661.3334
        50.700          43.9004
 120232566.488 7  93687707.95144  22879494.695    22879489.7504
        45.100          28.8004
 111077063.454 8  86553522.04246  21137262.376    21137255.2624
        49.100          39.2004
 129293146.703 5 100747999.23642  24603643.911    24603644.6524
        32.200          17.4004
 116633371.325 7  90883112.77845  22194594.734    22194587.0344
        46.700          33.7004
 115583579.344 7  90065112.51245  21994823.061    21994818.2334
        44.900          35.5004
 112291380.569 8  87499756.52446  21368341.047    21368337.9784
        48.800          37.4004
 124929635.621 6  97347732.98043  23773321.721    23773314.6664
        41.200          23.0004
 133054279.825 5                  25319388.833
        32.200
 15  9 17  0 22 30.0000000  0  9G22G14G16G29G18G27G26G21G31
 106683008.691 8  83129575.88747  20301101.555    20301091.6864
        50.700          43.5004
 120168646.835 7  93637900.50544  22867330.995    22867326.9294
        45.600          29.6004
 111091953.739 8  86565124.81846  21140096.341    21140088.8764
        49.100          39.1004
 129367788.171 5 100806161.25242  24617847.647    24617848.2704
        32.200          16.9004
 116708618.081 7  90941746.56645  22208913.763    22208905.6534
        46.400          33.5004
 115509701.142 7  90007545.12446  21980764.231    21980759.3454
        44.900          36.1004
 112356892.829 8  87550804.96146  21380807.519    21380804.8604
        49.100          38.2004
 124963555.310 6  97374163.81144  23779775.859    23779769.8014
        41.400          24.6004
 133079003.710 5                  25324094.589
        34.700
 15  9 17  0 23  0.0000000  0  9G22G14G16G29G18G27G26G21G31
 106701482.017 8  83143970.68247  20304616.471    20304606.4274
        50.500          43.1004
 120104860.404 7  93588196.85645  22855192.537    22855188.4134
        44.900          30.2004
 111107391.041 8  86577153.85146  21143033.946    21143026.5984
        49.500          39.0004
 129442664.326 5 100864506.19743  24632096.437    24632097.2954
        32.200          18.6004
 116784056.001 7  91000529.31545  22223269.368    22223261.6684
        46.700          33.3004
 115435943.680 7  89950071.81846  21966728.681    21966723.5024
        45.400          36.3004
 112422783.916 8  87602148.59046  21393346.193    21393343.5334
        48.800          38.2004
 124997405.858 6  97400540.75543  23786218.444    23786211.3304
        41.000          22.6004
 133103395.436 6                  25328735.792
        36.100
 15  9 17  0 23 30.0000000  0  9G22G14G16G29G18G27G26G21G31
 106720400.521 8  83158712.37347  20308216.700    20308206.4224
        50.200          43.1004
 120041208.636 7  93538598.15744  22843080.182    22843075.4714
        45.800          29.8004
 111123373.003 8  86589607.28346  21146075.573    21146068.1084
        49.000          39.1004
 129517773.481 5 100923032.61242  24646390.169    24646389.9134
        32.900          16.3004
 116859681.693 7  91059458.38545  22237660.867    22237652.6994
        47.000          33.6004
 115362307.921 7  89892693.34546  21952716.377    21952711.3154
        45.800          36.8004
 112489049.591 8  87653784.11046  21405956.735    21405953.6664
        49.100          38.0004
 125031186.703 6  97426863.37643  23792645.427    23792640.2484
        41.400          22.8004
 133127452.427 5                  25333313.227
        31.500
 15  9 17  0 24  0.0000000  0  9G22G14G16G29G18G27G26G21G31
 106739762.974 8  83173799.99847  20311900.932    20311891.0054
        51.000          43.1004
 119977694.766 7  93489106.90244  22830993.398    22830988.7464
        45.000          29.9004
 111139899.115 8  86602484.73146  21149220.661    21149212.9614
        49.100          39.9004
 129593115.103 5 100981740.21543  24660727.233    24660725.8054
        34.500          18.6004
 116935493.228 7  91118532.26245  22252087.006    22252078.6624
        45.800          33.7004
 115288796.369 7  89835411.65446  21938727.402    21938722.1054
        46.900          37.0004
 112555687.363 8  87705709.56546  21418637.265    21418634.7234
        49.400          38.2004
 125064898.531 6  97453132.24943  23799061.206    23799054.6204
        41.300          22.8004
 133151304.418 5                  25337825.929
        30.700
 15  9 17  0 24 30.0000000  0  9G22G14G16G29G18G27G26G21G31
 106759567.852 8  83189232.36147  20315670.202    20315659.9824
        50.500          43.3004
 119914321.831 7  93439725.45845  22818934.096    22818929.5624
        44.600          30.6004
 111156968.047 8  86615785.16346  21152468.439    21152461.1494
        48.700          39.7004
 129668688.346 5 101040628.31942  24675108.043    24675106.3214
        34.100          16.9004
 117011488.819 7  91177749.56445  22266548.195    22266540.4954
        45.400          32.7004
 115215411.360 7  89778228.56246  21924762.682    21924757.5034
        46.400          37.3004
 112622694.600 8  87757922.92146  21431388.499    21431385.4294
        49.300          38.2004
 125098541.818 6  97479347.70843  23805464.282    23805457.1684
        41.400          22.6004
 133174690.892 5                  25342279.010
        34.400
 15  9 17  0 25  0.0000000  0  9G22G14G16G29G18G27G26G21G31
 106779814.746 8  83205009.16947  20319522.989    20319512.9454
        50.100          43.7004
 119851093.404 7  93390456.63544  22806902.328    22806897.6764
        45.300          29.9004
 111174579.316 8  86629508.18846  21155819.849    21155812.7354
        48.000          39.1004
 129744493.563 5 101099697.10942  24689532.738    24689532.4234
        30.800          16.9004
 117087666.363 7  91237108.65845  22281044.093    22281036.8034
        45.700          33.4004
 115142156.028 7  89721146.53546  21910822.861    21910817.5064
        46.300          37.6004
 112690069.385 8  87810422.66746  21444209.652    21444206.1144
        48.600          37.0004
 125132117.899 6  97505510.75243  23811852.347    23811846.1714
        40.300          22.5004
 133197741.679 5                  25346665.556
        32.300
 15  9 17  0 25 30.0000000  0  9G22G14G16G29G18G27G26G21G31
 106800502.747 8  83221129.67947  20323459.902    20323449.8584
        51.200          43.6004
 119788012.998 7  93341303.13244  22794898.457    22794893.8634
        45.300          29.7004
 111192733.011 8  86643653.88846  21159274.304    21159267.1914
        48.100          38.9004
 129820530.278 5 101158946.33242  24704002.050    24704002.2044
        32.400          17.8004
 117164024.589 7  91296608.51345  22295574.972    22295567.2134
        46.900          34.4004
 115069033.366 7  89664167.87146  21896907.774    21896903.4744
        45.800          37.8004
 112757809.565 8  87863207.13946  21457099.943    21457097.3434
        48.400          37.5004
 125165628.514 7  97531622.85243  23818230.449    23818223.8634
        42.600          22.6004
                                  25350988.953
        28.600
 15  9 17  0 26  0.0000000  0  9G22G14G16G29G18G27G26G21G31
 106821627.709 8  83237590.68847  20327479.833    20327469.9644
        49.800          43.6004
 119725081.074 7  93292265.33645  22782923.397    22782917.8074
        45.000          30.2004
 111211424.679 8  86658218.77846  21162831.026    21162823.7374
        48.200          38.4004
 129896817.524 5 101218384.58642  24718515.003    24718515.5674
        31.600          15.6004
 117240558.202 7  91356245.06045  22310139.087    22310131.3284
        46.600          33.6004
 114996042.900 7  89607292.23046  21883017.810    21883013.8614
        45.600          37.3004
 112825909.562 8  87916271.97846  21470058.893    21470056.4694
        48.200          38.2004
 125199071.270 6  97557682.03043  23824594.863    23824587.8674
        41.600          23.0004
                                  25355243.607
        27.300
 15  9 17  0 26 30.0000000  0  8G22G14G16G29G18G27G26G21
 106843191.374 8  83254393.54447  20331583.366    20331573.3224
        51.000          44.2004
 119662302.982 7  93243347.41945  22770976.104    22770971.7454
        44.800          30.2004
 111230656.187 8  86673204.32046  21166490.539    21166483.6014
        48.600          39.1004
                 101277986.85942  24733070.982
        31.600          16.3004
 117317268.104 7  91416018.96245  22324736.289    22324729.4684
        47.200          33.8004
 114923189.903 7  89550523.69946  21869154.517    21869149.7474
        47.000          37.4004
 112894369.594 7  87969617.38346  21483086.495    21483084.0704
        47.500          37.0004
 125232449.406 6  97583690.88343  23830945.694    23830939.8704
        41.200          22.5004
 15  9 17  0 27  0.0000000  0  8G22G14G16G29G18G27G26G21
 106865187.191 8  83271533.13147  20335768.915    20335758.8124
        51.100          43.4004
 119599677.546 7  93194548.45645  22759058.663    22759054.2464
        45.000          30.4004
 111250422.389 8  86688606.51146  21170252.091    21170244.9774
        49.600          38.8004
 130050038.608 5 101337774.93542  24747671.027    24747670.6544
        31.900          16.3004
 117394148.355 7  91475925.61145  22339365.793    22339358.7384
        46.900          33.0004
 114850472.516 7  89493860.84046  21855316.870    21855311.5154
        47.300          37.3004
 112963182.571 8  88023237.79646  21496181.675    21496178.7234
        48.400          37.4004
 125265759.722 6  97609646.86344  23837284.702    23837278.7024
        41.800          24.3004
 15  9 17  0 27 30.0000000  0  9G22G14G04G16G29G18G27G26G21
 106887617.134 8  83289011.00647  20340036.890    20340026.9054
        51.100          43.5004
 119537210.928 7  93145873.24145  22747172.478    22747166.9474
        45.900          30.0004
                                  24692726.260
        31.600
 111270725.006 8  86704426.68846  21174116.040    21174108.2824
        50.100          38.4004
 130126988.586 5 101397735.81743  24762315.958    24762315.0574
        33.700          18.6004
 117471199.430 7  91535965.35345  22354027.742    22354021.3314
        47.000          32.3004
 114777896.110 7  89437307.83646  21841505.807    21841501.3314
        47.300          37.2004
 113032348.846 7  88077133.50146  21509342.652    21509340.8134
        47.800          37.3004
 125299005.883 7  97635552.88143  23843612.040    23843604.8094
        42.700          22.2004
 15  9 17  0 28  0.0000000  0 10G22G14G04G16G29G08G18G27G26G21
 106910470.404 8  83306818.74247  20344386.027    20344375.6904
        51.000          43.8004
 119474896.728 7  93097316.81845  22735314.035    22735309.6764
        45.200          30.2004
 129706365.902 5                  24682300.739
        33.100
 111291553.520 8  86720656.65246  21178079.439    21178071.7394
        50.000          38.8004
 130204156.486 5 101457866.45242  24776999.674    24777000.2384
        33.700          17.4004
                                  24797173.301
        33.600
 117548409.630 7  91596129.10445  22368720.487    22368713.7834
        46.000          32.3004
 114705453.739 7  89380859.28846  21827720.989    21827715.7514
        47.800          37.6004
 113101856.222 8  88131295.00146  21522570.464    21522567.6294
        48.200          37.6004
 125332179.236 6  97661402.14044  23849923.696    23849918.2234
        41.500          25.3004
 15  9 17  0 28 30.0000000  0 10G22G14G04G16G29G08G18G27G26G21
 106933767.945 8  83324972.66247  20348819.513    20348809.7034
        48.800          43.5004
 119412759.940 7  93048898.61845  22723489.902    22723485.1334
        46.000          30.7004
 129651653.346 5                  24671889.812
        35.800
 111312928.978 7  86737312.81246  21182146.861    21182139.3374
        47.900          38.2004
 130281564.118 5 101518183.87642  24791732.368    24791731.2914
        34.100          16.9004
 130217511.270 4                  24779568.506
        29.400
 117625799.493 7  91656432.84545  22383447.443    22383440.0954
        46.300          31.9004
 114633170.105 8  89324534.42346  21813965.737    21813960.6754
        48.600          37.7004
 113171724.232 8  88185737.51246  21535865.377    21535863.1284
        48.800          37.2004
 125365302.666 6  97687212.51343  23856227.224    23856220.8144
        41.600          22.3004
 15  9 17  0 29  0.0000000  0 11G22G14G04G16G29G08G18G27G26G21G31
 106957488.228 8  83343455.99547  20353333.123    20353323.3724
        48.700          42.6004
 119350784.187 7  93000605.91444  22711695.998    22711691.4054
        45.200          28.9004
 129596991.898 6                  24661489.249
        37.600
 111334830.129 8  86754378.60446  21186315.270    21186306.8094
        48.200          39.1004
 130359193.770 5 101578676.96042  24806503.004    24806502.0454
        34.300          15.6004
 130124899.634 5                  24761945.753
        31.600
 117703347.004 7  91716859.43345  22398204.209    22398196.3334
        46.000          31.9004
 114561027.806 8  89268319.68746  21800237.596    21800231.8894
        48.000          37.7004
 113241930.324 7  88240443.46946  21549225.371    21549222.8294
        47.800          36.5004
 125398357.198 6  97712969.18343  23862516.298    23862510.9424
        41.300          22.6004
 133370339.057 5                  25379436.078
        34.400
 15  9 17  0 29 30.0000000  0 11G22G14G04G16G29G08G18G27G26G21G31
 106981638.439 8  83362274.32347  20357928.457    20357918.4134
        48.500          43.2004
 119288980.484 7  92952447.26845  22699935.012    22699929.8914
        43.900          30.5004
 129542389.310 5                  24651097.150
        34.800
 111357264.400 8  86771859.80846  21190584.279    21190576.1694
        48.300          38.6004
 130437047.339 5 101639341.86442  24821316.971    24821318.1214
        32.600          16.9004
 130032206.487 5                  24744307.156
        31.300
 117781058.237 7  91777413.59045  22412992.119    22412985.0644
        45.600          32.4004
 114489037.824 7  89212223.63846  21786538.072    21786533.3614
        47.800          38.0004
 113312480.232 7  88295417.33146  21562650.796    21562648.1964
        47.800          36.9004
 125431351.932 6  97738679.29043  23868796.433    23868790.0234
        41.300          22.9004
 133390331.472 5                  25383237.499
        33.900
 15  9 17  0 30  0.0000000  0 10G22G14G04G16G29G08G18G27G26G21
 107006214.417 8  83381424.42647  20362605.472    20362595.5464
        49.500          43.5004
 119227349.751 7  92904423.38944  22688206.755    22688201.9864
        43.900          29.8004
 129487842.860 6                  24640717.562
        36.800
 111380228.294 8  86789753.71346  21194954.078    21194946.1444
        48.900          38.5004
 130515125.451 5 101700181.78842  24836176.215    24836176.3104
        33.700          16.9004
 129939412.935 5                  24726651.008
        33.600
 117858929.089 7  91838092.11745  22427811.151    22427803.3934
        47.000          32.4004
 114417200.268 7  89156246.36446  21772867.443    21772862.5574
        47.500          38.2004
 113383368.828 8  88350655.11246  21576140.189    21576138.0574
        48.500          37.3004
 125464285.528 7  97764341.73543  23875062.946    23875057.4744
        42.100          23.0004
 15  9 17  0 30 30.0000000  0 10G22G14G04G16G29G08G18G27G26G21
 107031213.791 8  83400904.44447  20367362.913    20367352.5764
        50.800          42.8004
 119165893.872 7  92856535.77745  22676512.843    22676507.1954
        44.700          30.2004
 129433350.850 5                  24630346.978
        35.000
 111403719.673 8  86808058.63846  21199424.305    21199416.8404
        50.300          38.8004
 130593422.274 5 101761199.41742  24851075.057    24851076.0904
        30.800          15.6004
 129846547.749 5                  24708980.372
        33.900
 117936956.079 7  91898892.31245  22442658.412    22442651.0644
        46.000          31.1004
 114345516.465 8  89100388.90446  21759226.940    21759221.5854
        48.100          37.9004
 113454592.218 8  88406153.77246  21589693.964    21589691.4224
        48.000          37.2004
 125497157.610 6  97789956.21643  23881318.800    23881313.6794
        41.700          22.9004
 15  9 17  0 31  0.0000000  0 10G22G14G04G16G29G08G18G27G26G21
 107056635.116 8  83420713.25447  20372200.582    20372190.3044
        50.900          43.5004
 119104615.921 7  92808786.79344  22664851.323    22664846.6714
        43.500          29.1004
 129378912.748 6                  24619988.795
        36.500
 111427736.937 8  86826773.33946  21203994.554    21203987.3234
        51.000          38.9004
 130671932.446 5 101822385.46742  24866016.363    24866017.9834
        31.000          15.6004
 129753598.578 5                  24691290.507
        31.200
 118015137.513 7  91959812.86245  22457536.055    22457528.4724
        46.800          31.5004
 114273989.203 7  89044653.41246  21745615.853    21745610.6744
        47.700          38.0004
 113526147.959 8  88461911.39746  21603310.336    21603308.0294
        49.000          36.3004
